{
"type": "FeatureCollection",
"name": "hospitals",
"crs": { "type": "name", "properties": { "name": "urn:ogc:def:crs:OGC:1.3:CRS84" } },
"features": [
{ "type": "Feature", "properties": { "OBJECTID": 1, "NAME": "St. Francis Medical Center", "ADDRESS": "601 HAMILTON AVENUE", "CITY": "TRENTON", "STATE": "NJ", "ZIP": "08629", "TELEPHONE": "609-599-5000", "ALT_PHONE": null, "TYPE": "ACUTE CARE HOSPITALS", "COUNTY": "MERCER", "COUNTYFIPS": "34021", "ST_FIPS": "34", "COUNTRY": "US", "REGION": "CENTRAL WEST", "LATITUDE": 40.21640796, "LONGITUDE": -74.74132003, "STATE_ID": null, "NAICS_CODE": null, "OWNER": null, "TTL_STAFF": null, "BEDS": 240, "TRAUMA": null }, "geometry": { "type": "Point", "coordinates": [ -74.741317719345446, 40.216400184327149 ] } },
{ "type": "Feature", "properties": { "OBJECTID": 2, "NAME": "St. Joseph's Regional Medical Center", "ADDRESS": "703 MAIN STREET", "CITY": "PATERSON", "STATE": "NJ", "ZIP": "07503", "TELEPHONE": "973-754-2000", "ALT_PHONE": "973-754-2025", "TYPE": "ACUTE CARE HOSPITALS", "COUNTY": "PASSAIC", "COUNTYFIPS": "34031", "ST_FIPS": "34", "COUNTRY": "US", "REGION": "NORTH WEST", "LATITUDE": 40.90259796, "LONGITUDE": -74.16559503000001, "STATE_ID": null, "NAICS_CODE": null, "OWNER": null, "TTL_STAFF": null, "BEDS": 660, "TRAUMA": "Level II" }, "geometry": { "type": "Point", "coordinates": [ -74.16559306702915, 40.902589763659904 ] } },
{ "type": "Feature", "properties": { "OBJECTID": 3, "NAME": "St. Joseph's Wayne Hospital", "ADDRESS": "224 HAMBURG TPKE", "CITY": "WAYNE", "STATE": "NJ", "ZIP": "07470", "TELEPHONE": "973-942-6900", "ALT_PHONE": "973-956-3300", "TYPE": "ACUTE CARE HOSPITALS", "COUNTY": "PASSAIC", "COUNTYFIPS": "34031", "ST_FIPS": "34", "COUNTRY": "US", "REGION": "NORTH WEST", "LATITUDE": 40.94689029, "LONGITUDE": -74.20313353, "STATE_ID": null, "NAICS_CODE": null, "OWNER": null, "TTL_STAFF": null, "BEDS": 229, "TRAUMA": null }, "geometry": { "type": "Point", "coordinates": [ -74.203131503281568, 40.94688218446958 ] } },
{ "type": "Feature", "properties": { "OBJECTID": 4, "NAME": "St. Mary's Hospital", "ADDRESS": "350 BOULEVARD", "CITY": "PASSAIC", "STATE": "NJ", "ZIP": "07055", "TELEPHONE": "973-365-4300", "ALT_PHONE": null, "TYPE": "ACUTE CARE HOSPITALS", "COUNTY": "PASSAIC", "COUNTYFIPS": "34031", "ST_FIPS": "34", "COUNTRY": "US", "REGION": "NORTH WEST", "LATITUDE": 40.85917196, "LONGITUDE": -74.13778103, "STATE_ID": null, "NAICS_CODE": null, "OWNER": null, "TTL_STAFF": null, "BEDS": 220, "TRAUMA": null }, "geometry": { "type": "Point", "coordinates": [ -74.137779111564399, 40.859163674136639 ] } },
{ "type": "Feature", "properties": { "OBJECTID": 5, "NAME": "Trinitas Regional Medical Center", "ADDRESS": "225 WILLIAMSON STREET", "CITY": "ELIZABETH", "STATE": "NJ", "ZIP": "07202", "TELEPHONE": "908-994-5000", "ALT_PHONE": null, "TYPE": "ACUTE CARE HOSPITALS", "COUNTY": "UNION", "COUNTYFIPS": "34039", "ST_FIPS": "34", "COUNTRY": "US", "REGION": "CENTRAL EAST", "LATITUDE": 40.65896196, "LONGITUDE": -74.21488903, "STATE_ID": null, "NAICS_CODE": null, "OWNER": null, "TTL_STAFF": null, "BEDS": 325, "TRAUMA": null }, "geometry": { "type": "Point", "coordinates": [ -74.214887491775841, 40.658953712460971 ] } },
{ "type": "Feature", "properties": { "OBJECTID": 6, "NAME": "University Hospital", "ADDRESS": "150 BERGEN ST.", "CITY": "NEWARK", "STATE": "NJ", "ZIP": "07103", "TELEPHONE": "973-972-1000", "ALT_PHONE": "973-972-6000", "TYPE": "ACUTE CARE HOSPITALS", "COUNTY": "ESSEX", "COUNTYFIPS": "34013", "ST_FIPS": "34", "COUNTRY": "US", "REGION": "NORTH EAST", "LATITUDE": 40.74064726, "LONGITUDE": -74.19087351, "STATE_ID": null, "NAICS_CODE": null, "OWNER": null, "TTL_STAFF": null, "BEDS": 519, "TRAUMA": "Level I" }, "geometry": { "type": "Point", "coordinates": [ -74.190871582395928, 40.740639041999366 ] } },
{ "type": "Feature", "properties": { "OBJECTID": 7, "NAME": "University Medical Center of Princeton at Plainsboro", "ADDRESS": "1 PLAINSBORO RD", "CITY": "PLAINSBORO", "STATE": "NJ", "ZIP": "08536", "TELEPHONE": "609-853-6500", "ALT_PHONE": null, "TYPE": "ACUTE CARE HOSPITALS", "COUNTY": "MIDDLESEX", "COUNTYFIPS": "34023", "ST_FIPS": "34", "COUNTRY": "US", "REGION": "CENTRAL EAST", "LATITUDE": 40.33982113, "LONGITUDE": -74.62426991, "STATE_ID": null, "NAICS_CODE": null, "OWNER": null, "TTL_STAFF": null, "BEDS": 219, "TRAUMA": null }, "geometry": { "type": "Point", "coordinates": [ -74.624267657122289, 40.339813003952102 ] } },
{ "type": "Feature", "properties": { "OBJECTID": 8, "NAME": "VA New Jersey Health Care System (East Orange)", "ADDRESS": "385 TREMONT AVENUE", "CITY": "EAST ORANGE", "STATE": "NJ", "ZIP": "07018-1095", "TELEPHONE": "973-676-1000", "ALT_PHONE": null, "TYPE": "ACUTE CARE HOSPITALS", "COUNTY": "ESSEX", "COUNTYFIPS": "34013", "ST_FIPS": "34", "COUNTRY": "US", "REGION": "NORTH EAST", "LATITUDE": 40.75251126, "LONGITUDE": -74.23603052, "STATE_ID": null, "NAICS_CODE": null, "OWNER": null, "TTL_STAFF": null, "BEDS": 218, "TRAUMA": null }, "geometry": { "type": "Point", "coordinates": [ -74.236028493209091, 40.752503195834251 ] } },
{ "type": "Feature", "properties": { "OBJECTID": 9, "NAME": "Valley Hospital", "ADDRESS": "223 NORTH VAN DIEN AVENUE", "CITY": "RIDGEWOOD", "STATE": "NJ", "ZIP": "07450", "TELEPHONE": "201-447-8000", "ALT_PHONE": "201-447-8004", "TYPE": "ACUTE CARE HOSPITALS", "COUNTY": "BERGEN", "COUNTYFIPS": "34003", "ST_FIPS": "34", "COUNTRY": "US", "REGION": "NORTH EAST", "LATITUDE": 40.98399152, "LONGITUDE": -74.10057671, "STATE_ID": null, "NAICS_CODE": null, "OWNER": null, "TTL_STAFF": null, "BEDS": 484, "TRAUMA": null }, "geometry": { "type": "Point", "coordinates": [ -74.10057482615376, 40.983983294074051 ] } },
{ "type": "Feature", "properties": { "OBJECTID": 10, "NAME": "Virtua Memorial Hospital of Burlington County", "ADDRESS": "175 MADISON AVENUE", "CITY": "MT. HOLLY", "STATE": "NJ", "ZIP": "08060", "TELEPHONE": "609-267-0700", "ALT_PHONE": null, "TYPE": "ACUTE CARE HOSPITALS", "COUNTY": "BURLINGTON", "COUNTYFIPS": "34005", "ST_FIPS": "34", "COUNTRY": "US", "REGION": "SOUTH", "LATITUDE": 39.98598696, "LONGITUDE": -74.79524403000001, "STATE_ID": null, "NAICS_CODE": null, "OWNER": null, "TTL_STAFF": null, "BEDS": 369, "TRAUMA": null }, "geometry": { "type": "Point", "coordinates": [ -74.795242304850262, 39.985980020406082 ] } },
{ "type": "Feature", "properties": { "OBJECTID": 11, "NAME": "Virtua West Jersey Hospital - Marlton", "ADDRESS": "90 BRICK ROAD", "CITY": "MARLTON", "STATE": "NJ", "ZIP": "08053", "TELEPHONE": "856-355-6200", "ALT_PHONE": null, "TYPE": "ACUTE CARE HOSPITALS", "COUNTY": "BURLINGTON", "COUNTYFIPS": "34005", "ST_FIPS": "34", "COUNTRY": "US", "REGION": "SOUTH", "LATITUDE": 39.88150706, "LONGITUDE": -74.91851369, "STATE_ID": null, "NAICS_CODE": null, "OWNER": null, "TTL_STAFF": null, "BEDS": 188, "TRAUMA": null }, "geometry": { "type": "Point", "coordinates": [ -74.918511631122172, 39.881500604925023 ] } },
{ "type": "Feature", "properties": { "OBJECTID": 12, "NAME": "Acuity Specialty Hospital of New Jersey", "ADDRESS": "1925 PACIFIC AVE", "CITY": "ATLANTIC CITY", "STATE": "NJ", "ZIP": "08401", "TELEPHONE": null, "ALT_PHONE": null, "TYPE": "NON ACUTE CARE HOSPITALS", "COUNTY": "ATLANTIC", "COUNTYFIPS": "34001", "ST_FIPS": "34", "COUNTRY": "US", "REGION": "SOUTH", "LATITUDE": 39.35900062, "LONGITUDE": -74.43428573, "STATE_ID": null, "NAICS_CODE": null, "OWNER": null, "TTL_STAFF": null, "BEDS": 9999999, "TRAUMA": null }, "geometry": { "type": "Point", "coordinates": [ -74.434285891258554, 39.358996253138983 ] } },
{ "type": "Feature", "properties": { "OBJECTID": 13, "NAME": "AcuteCare Specialty Hospital of Monmouth", "ADDRESS": "300 2ND AVE", "CITY": "LONG BRANCH", "STATE": "NJ", "ZIP": "07740", "TELEPHONE": null, "ALT_PHONE": null, "TYPE": "NON ACUTE CARE HOSPITALS", "COUNTY": "MONMOUTH", "COUNTYFIPS": "34025", "ST_FIPS": "34", "COUNTRY": "US", "REGION": "CENTRAL EAST", "LATITUDE": 40.29558803, "LONGITUDE": -73.98488811, "STATE_ID": null, "NAICS_CODE": null, "OWNER": null, "TTL_STAFF": null, "BEDS": 9999999, "TRAUMA": null }, "geometry": { "type": "Point", "coordinates": [ -73.984887675199957, 40.295580067972345 ] } },
{ "type": "Feature", "properties": { "OBJECTID": 14, "NAME": "Robert Wood Johnson, Jr. Rehabilitation Institute", "ADDRESS": "65 JAMES STREET", "CITY": "EDISON", "STATE": "NJ", "ZIP": "08818", "TELEPHONE": "732-321-7051", "ALT_PHONE": null, "TYPE": "NON ACUTE CARE HOSPITALS", "COUNTY": "MIDDLESEX", "COUNTYFIPS": "34023", "ST_FIPS": "34", "COUNTRY": "US", "REGION": "CENTRAL EAST", "LATITUDE": 40.55673796, "LONGITUDE": -74.35025203, "STATE_ID": null, "NAICS_CODE": null, "OWNER": null, "TTL_STAFF": null, "BEDS": 9999999, "TRAUMA": null }, "geometry": { "type": "Point", "coordinates": [ -74.350250603168575, 40.556729589908272 ] } },
{ "type": "Feature", "properties": { "OBJECTID": 15, "NAME": "JFK-Muhlenberg SED", "ADDRESS": "1200 RANDOLPH ROAD", "CITY": "PLAINFIELD", "STATE": "NJ", "ZIP": "07061", "TELEPHONE": "908-668-2000", "ALT_PHONE": "732-321-7000", "TYPE": "SATELLITE EMERGENCY DEPARTMENTS", "COUNTY": "UNION", "COUNTYFIPS": "34039", "ST_FIPS": "34", "COUNTRY": "US", "REGION": "CENTRAL EAST", "LATITUDE": 40.60686878, "LONGITUDE": -74.40372055, "STATE_ID": null, "NAICS_CODE": null, "OWNER": null, "TTL_STAFF": null, "BEDS": 9999999, "TRAUMA": null }, "geometry": { "type": "Point", "coordinates": [ -74.403718811466803, 40.606860508445571 ] } },
{ "type": "Feature", "properties": { "OBJECTID": 16, "NAME": "Ocean Care SED", "ADDRESS": "1517 RICHMOND AVE", "CITY": "POINT PLEASANT", "STATE": "NJ", "ZIP": "08742", "TELEPHONE": null, "ALT_PHONE": null, "TYPE": "SATELLITE EMERGENCY DEPARTMENTS", "COUNTY": "OCEAN", "COUNTYFIPS": "34029", "ST_FIPS": "34", "COUNTRY": "US", "REGION": "CENTRAL EAST", "LATITUDE": 40.08205567, "LONGITUDE": -74.04966375, "STATE_ID": null, "NAICS_CODE": null, "OWNER": null, "TTL_STAFF": null, "BEDS": 9999999, "TRAUMA": null }, "geometry": { "type": "Point", "coordinates": [ -74.049662078820148, 40.082047628712168 ] } },
{ "type": "Feature", "properties": { "OBJECTID": 17, "NAME": "Overlook-Union SED", "ADDRESS": "1000 GALLOPING HILL ROAD", "CITY": "UNION", "STATE": "NJ", "ZIP": "07083", "TELEPHONE": null, "ALT_PHONE": null, "TYPE": "SATELLITE EMERGENCY DEPARTMENTS", "COUNTY": "UNION", "COUNTYFIPS": "34039", "ST_FIPS": "34", "COUNTRY": "US", "REGION": "CENTRAL EAST", "LATITUDE": 40.67475507, "LONGITUDE": -74.26552308, "STATE_ID": null, "NAICS_CODE": null, "OWNER": null, "TTL_STAFF": null, "BEDS": 9999999, "TRAUMA": null }, "geometry": { "type": "Point", "coordinates": [ -74.265521422751334, 40.67474691352988 ] } },
{ "type": "Feature", "properties": { "OBJECTID": 18, "NAME": "Virtua-Berlin SED", "ADDRESS": "100 TOWNSEND AVENUE", "CITY": "BERLIN", "STATE": "NJ", "ZIP": "08009", "TELEPHONE": "856-322-3000", "ALT_PHONE": null, "TYPE": "SATELLITE EMERGENCY DEPARTMENTS", "COUNTY": "CAMDEN", "COUNTYFIPS": "34007", "ST_FIPS": "34", "COUNTRY": "US", "REGION": "SOUTH", "LATITUDE": 39.78175704, "LONGITUDE": -74.92033568, "STATE_ID": null, "NAICS_CODE": null, "OWNER": null, "TTL_STAFF": null, "BEDS": 95, "TRAUMA": null }, "geometry": { "type": "Point", "coordinates": [ -74.920334058974248, 39.781751173575287 ] } },
{ "type": "Feature", "properties": { "OBJECTID": 19, "NAME": "Virtua-Camden SED", "ADDRESS": "1000 ATLANTIC AVENUE", "CITY": "CAMDEN", "STATE": "NJ", "ZIP": "08104", "TELEPHONE": null, "ALT_PHONE": null, "TYPE": "SATELLITE EMERGENCY DEPARTMENTS", "COUNTY": "CAMDEN", "COUNTYFIPS": "34007", "ST_FIPS": "34", "COUNTRY": "US", "REGION": "SOUTH", "LATITUDE": 39.92911772, "LONGITUDE": -75.10820631, "STATE_ID": null, "NAICS_CODE": null, "OWNER": null, "TTL_STAFF": null, "BEDS": 9999999, "TRAUMA": null }, "geometry": { "type": "Point", "coordinates": [ -75.108203142886353, 39.929111105493199 ] } },
{ "type": "Feature", "properties": { "OBJECTID": 20, "NAME": "Antioch Manor", "ADDRESS": "1860 VAN BUREN STREET", "CITY": "CAMDEN", "STATE": "NJ", "ZIP": "08104", "TELEPHONE": "856-964-8028", "ALT_PHONE": null, "TYPE": "FEDERALLY QUALIFIED HEALTH CENTERS", "COUNTY": "CAMDEN", "COUNTYFIPS": "34007", "ST_FIPS": "34", "COUNTRY": "US", "REGION": "SOUTH", "LATITUDE": 39.92118742, "LONGITUDE": -75.11475476, "STATE_ID": null, "NAICS_CODE": null, "OWNER": null, "TTL_STAFF": null, "BEDS": 9999999, "TRAUMA": null }, "geometry": { "type": "Point", "coordinates": [ -75.114751593442534, 39.921180848140672 ] } },
{ "type": "Feature", "properties": { "OBJECTID": 21, "NAME": "AtlantiCare Health Services", "ADDRESS": "2500 ENGLISH CREEK ROAD", "CITY": "EGG HARBOR TOWNSHIP", "STATE": "NJ", "ZIP": "08234", "TELEPHONE": "609-344-5714", "ALT_PHONE": null, "TYPE": "FEDERALLY QUALIFIED HEALTH CENTERS", "COUNTY": "ATLANTIC", "COUNTYFIPS": "34001", "ST_FIPS": "34", "COUNTRY": "US", "REGION": "SOUTH", "LATITUDE": 39.43644618, "LONGITUDE": -74.6063873, "STATE_ID": null, "NAICS_CODE": null, "OWNER": null, "TTL_STAFF": null, "BEDS": 9999999, "TRAUMA": null }, "geometry": { "type": "Point", "coordinates": [ -74.606386614183137, 39.436441163471763 ] } },
{ "type": "Feature", "properties": { "OBJECTID": 22, "NAME": "AtlantiCare Health Services Healthcare for the Homeless-Atlantic Ave", "ADDRESS": "1401 ATLANTIC AVE suite 2600", "CITY": "ATLANTIC CITY", "STATE": "NJ", "ZIP": "08401", "TELEPHONE": "609-572-6055", "ALT_PHONE": null, "TYPE": "FEDERALLY QUALIFIED HEALTH CENTERS", "COUNTY": "ATLANTIC", "COUNTYFIPS": "34001", "ST_FIPS": "34", "COUNTRY": "US", "REGION": "SOUTH", "LATITUDE": 39.36260271, "LONGITUDE": -74.42869212, "STATE_ID": null, "NAICS_CODE": null, "OWNER": null, "TTL_STAFF": null, "BEDS": 9999999, "TRAUMA": null }, "geometry": { "type": "Point", "coordinates": [ -74.428692302779808, 39.362598310132867 ] } },
{ "type": "Feature", "properties": { "OBJECTID": 23, "NAME": "AtlantiCare Health Services Healthcare for the Homeless-Bacharach Blvd", "ADDRESS": "2009 BACHARACH BLVD.", "CITY": "ATLANTIC CITY", "STATE": "NJ", "ZIP": "08401", "TELEPHONE": "609-344-5714", "ALT_PHONE": null, "TYPE": "FEDERALLY QUALIFIED HEALTH CENTERS", "COUNTY": "ATLANTIC", "COUNTYFIPS": "34001", "ST_FIPS": "34", "COUNTRY": "US", "REGION": "SOUTH", "LATITUDE": 39.36500699, "LONGITUDE": -74.44023708, "STATE_ID": null, "NAICS_CODE": null, "OWNER": null, "TTL_STAFF": null, "BEDS": 9999999, "TRAUMA": null }, "geometry": { "type": "Point", "coordinates": [ -74.440237228768993, 39.365002575555003 ] } },
{ "type": "Feature", "properties": { "OBJECTID": 24, "NAME": "AtlantiCare Health Services at Covenant House", "ADDRESS": "929 ATLANTIC AVENUE", "CITY": "ATLANTIC CITY", "STATE": "NJ", "ZIP": "08401", "TELEPHONE": "609-344-5714", "ALT_PHONE": null, "TYPE": "FEDERALLY QUALIFIED HEALTH CENTERS", "COUNTY": "ATLANTIC", "COUNTYFIPS": "34001", "ST_FIPS": "34", "COUNTRY": "US", "REGION": "SOUTH", "LATITUDE": 39.36441401, "LONGITUDE": -74.42238509000001, "STATE_ID": null, "NAICS_CODE": null, "OWNER": null, "TTL_STAFF": null, "BEDS": 9999999, "TRAUMA": null }, "geometry": { "type": "Point", "coordinates": [ -74.422385285774055, 39.364409587307001 ] } },
{ "type": "Feature", "properties": { "OBJECTID": 25, "NAME": "Atlantic City Center", "ADDRESS": "1301 ATLANTIC AVENUE", "CITY": "ATLANTIC CITY", "STATE": "NJ", "ZIP": "08401", "TELEPHONE": "609-572-0000", "ALT_PHONE": null, "TYPE": "FEDERALLY QUALIFIED HEALTH CENTERS", "COUNTY": "ATLANTIC", "COUNTYFIPS": "34001", "ST_FIPS": "34", "COUNTRY": "US", "REGION": "SOUTH", "LATITUDE": 39.36256935, "LONGITUDE": -74.42724061, "STATE_ID": null, "NAICS_CODE": null, "OWNER": null, "TTL_STAFF": null, "BEDS": 9999999, "TRAUMA": null }, "geometry": { "type": "Point", "coordinates": [ -74.427240788633853, 39.362564951032255 ] } },
{ "type": "Feature", "properties": { "OBJECTID": 26, "NAME": "Bayonne Family Medical Center by HAC, Inc", "ADDRESS": "29 EAST 29TH STREET", "CITY": "BAYONNE", "STATE": "NJ", "ZIP": "07002", "TELEPHONE": "201-683-2000", "ALT_PHONE": "201-451-6300", "TYPE": "FEDERALLY QUALIFIED HEALTH CENTERS", "COUNTY": "HUDSON", "COUNTYFIPS": "34017", "ST_FIPS": "34", "COUNTRY": "US", "REGION": "NORTH EAST", "LATITUDE": 40.66807496, "LONGITUDE": -74.11264403, "STATE_ID": null, "NAICS_CODE": null, "OWNER": null, "TTL_STAFF": null, "BEDS": 9999999, "TRAUMA": null }, "geometry": { "type": "Point", "coordinates": [ -74.112642484073675, 40.668066536841494 ] } },
{ "type": "Feature", "properties": { "OBJECTID": 27, "NAME": "Bridgeton RiteCare", "ADDRESS": "1000 PEARL STREET", "CITY": "BRIDGETON", "STATE": "NJ", "ZIP": "08302", "TELEPHONE": "856-451-4700", "ALT_PHONE": null, "TYPE": "FEDERALLY QUALIFIED HEALTH CENTERS", "COUNTY": "CUMBERLAND", "COUNTYFIPS": "34011", "ST_FIPS": "34", "COUNTRY": "US", "REGION": "SOUTH", "LATITUDE": 39.45715878, "LONGITUDE": -75.21285176000001, "STATE_ID": null, "NAICS_CODE": null, "OWNER": null, "TTL_STAFF": null, "BEDS": 9999999, "TRAUMA": null }, "geometry": { "type": "Point", "coordinates": [ -75.212849176816235, 39.457154045753008 ] } },
{ "type": "Feature", "properties": { "OBJECTID": 28, "NAME": "Burlington City Center", "ADDRESS": "665 HIGH STREET", "CITY": "BURLINGTON CITY", "STATE": "NJ", "ZIP": "08016", "TELEPHONE": "609-386-0775", "ALT_PHONE": null, "TYPE": "FEDERALLY QUALIFIED HEALTH CENTERS", "COUNTY": "BURLINGTON", "COUNTYFIPS": "34005", "ST_FIPS": "34", "COUNTRY": "US", "REGION": "SOUTH", "LATITUDE": 40.07037855, "LONGITUDE": -74.85461481, "STATE_ID": null, "NAICS_CODE": null, "OWNER": null, "TTL_STAFF": null, "BEDS": 9999999, "TRAUMA": null }, "geometry": { "type": "Point", "coordinates": [ -74.854612494217562, 40.070371246384411 ] } },
{ "type": "Feature", "properties": { "OBJECTID": 29, "NAME": "CAMCare Gateway Health Center", "ADDRESS": "817 FEDERAL STREET", "CITY": "CAMDEN", "STATE": "NJ", "ZIP": "08103", "TELEPHONE": "856-541-3270", "ALT_PHONE": null, "TYPE": "FEDERALLY QUALIFIED HEALTH CENTERS", "COUNTY": "CAMDEN", "COUNTYFIPS": "34007", "ST_FIPS": "34", "COUNTRY": "US", "REGION": "SOUTH", "LATITUDE": 39.94419341, "LONGITUDE": -75.11580963, "STATE_ID": null, "NAICS_CODE": null, "OWNER": null, "TTL_STAFF": null, "BEDS": 9999999, "TRAUMA": null }, "geometry": { "type": "Point", "coordinates": [ -75.115806394436447, 39.944186754578908 ] } },
{ "type": "Feature", "properties": { "OBJECTID": 30, "NAME": "CAMcare - East", "ADDRESS": "2610 FEDERAL STREET", "CITY": "CAMDEN", "STATE": "NJ", "ZIP": "08105", "TELEPHONE": "856-635-0203", "ALT_PHONE": null, "TYPE": "FEDERALLY QUALIFIED HEALTH CENTERS", "COUNTY": "CAMDEN", "COUNTYFIPS": "34007", "ST_FIPS": "34", "COUNTRY": "US", "REGION": "SOUTH", "LATITUDE": 39.9461117, "LONGITUDE": -75.08827738, "STATE_ID": null, "NAICS_CODE": null, "OWNER": null, "TTL_STAFF": null, "BEDS": 9999999, "TRAUMA": null }, "geometry": { "type": "Point", "coordinates": [ -75.088274215378348, 39.946104966990511 ] } },
{ "type": "Feature", "properties": { "OBJECTID": 31, "NAME": "CAMcare - North", "ADDRESS": "6TH ST AND ERIE STREETS", "CITY": "CAMDEN", "STATE": "NJ", "ZIP": "08102", "TELEPHONE": "856-757-9180", "ALT_PHONE": null, "TYPE": "FEDERALLY QUALIFIED HEALTH CENTERS", "COUNTY": "CAMDEN", "COUNTYFIPS": "34007", "ST_FIPS": "34", "COUNTRY": "US", "REGION": "SOUTH", "LATITUDE": 39.95462832, "LONGITUDE": -75.11610152, "STATE_ID": null, "NAICS_CODE": null, "OWNER": null, "TTL_STAFF": null, "BEDS": 9999999, "TRAUMA": null }, "geometry": { "type": "Point", "coordinates": [ -75.116098247115943, 39.954621626506913 ] } },
{ "type": "Feature", "properties": { "OBJECTID": 32, "NAME": "CAMcare - South", "ADDRESS": "S 8TH ST AND CARL MILLER BLVD.", "CITY": "CAMDEN", "STATE": "NJ", "ZIP": "08103", "TELEPHONE": "856-541-4926", "ALT_PHONE": null, "TYPE": "FEDERALLY QUALIFIED HEALTH CENTERS", "COUNTY": "CAMDEN", "COUNTYFIPS": "34007", "ST_FIPS": "34", "COUNTRY": "US", "REGION": "SOUTH", "LATITUDE": 39.92376139, "LONGITUDE": -75.11270915, "STATE_ID": null, "NAICS_CODE": null, "OWNER": null, "TTL_STAFF": null, "BEDS": 9999999, "TRAUMA": null }, "geometry": { "type": "Point", "coordinates": [ -75.112705984658021, 39.923754801403334 ] } },
{ "type": "Feature", "properties": { "OBJECTID": 33, "NAME": "CAMcare Clementon", "ADDRESS": "121 WHITEHORSE PIKE", "CITY": "CLEMENTON", "STATE": "NJ", "ZIP": "08021", "TELEPHONE": "856-627-7701", "ALT_PHONE": null, "TYPE": "FEDERALLY QUALIFIED HEALTH CENTERS", "COUNTY": "CAMDEN", "COUNTYFIPS": "34007", "ST_FIPS": "34", "COUNTRY": "US", "REGION": "SOUTH", "LATITUDE": 39.81170802, "LONGITUDE": -74.9830358, "STATE_ID": null, "NAICS_CODE": null, "OWNER": null, "TTL_STAFF": null, "BEDS": 9999999, "TRAUMA": null }, "geometry": { "type": "Point", "coordinates": [ -74.983033565615386, 39.811701871401681 ] } },
{ "type": "Feature", "properties": { "OBJECTID": 34, "NAME": "CAMcare Odessa Paulk-Jones", "ADDRESS": "813 FERRY AVENUE", "CITY": "CAMDEN", "STATE": "NJ", "ZIP": "08105", "TELEPHONE": "856-541-3270", "ALT_PHONE": null, "TYPE": "FEDERALLY QUALIFIED HEALTH CENTERS", "COUNTY": "CAMDEN", "COUNTYFIPS": "34007", "ST_FIPS": "34", "COUNTRY": "US", "REGION": "SOUTH", "LATITUDE": 39.92045613, "LONGITUDE": -75.11164635, "STATE_ID": null, "NAICS_CODE": null, "OWNER": null, "TTL_STAFF": null, "BEDS": 9999999, "TRAUMA": null }, "geometry": { "type": "Point", "coordinates": [ -75.111643190913696, 39.920449554400022 ] } },
{ "type": "Feature", "properties": { "OBJECTID": 35, "NAME": "CAMcare Paulsboro", "ADDRESS": "1315 NORTH DELAWARE STREET", "CITY": "PAULSBORO", "STATE": "NJ", "ZIP": "08066", "TELEPHONE": "856-687-2200", "ALT_PHONE": null, "TYPE": "FEDERALLY QUALIFIED HEALTH CENTERS", "COUNTY": "GLOUCESTER", "COUNTYFIPS": "34015", "ST_FIPS": "34", "COUNTRY": "US", "REGION": "SOUTH", "LATITUDE": 39.83081547, "LONGITUDE": -75.24078077, "STATE_ID": null, "NAICS_CODE": null, "OWNER": null, "TTL_STAFF": null, "BEDS": 9999999, "TRAUMA": null }, "geometry": { "type": "Point", "coordinates": [ -75.240777373090452, 39.830809265390997 ] } },
{ "type": "Feature", "properties": { "OBJECTID": 36, "NAME": "CHEMED (Center for Health, Education, Medicine and Dentistry)", "ADDRESS": "1771 MADISON AVENUE", "CITY": "LAKEWOOD", "STATE": "NJ", "ZIP": "08701", "TELEPHONE": "732-364-2144", "ALT_PHONE": null, "TYPE": "FEDERALLY QUALIFIED HEALTH CENTERS", "COUNTY": "OCEAN", "COUNTYFIPS": "34029", "ST_FIPS": "34", "COUNTRY": "US", "REGION": "CENTRAL EAST", "LATITUDE": 40.10909861, "LONGITUDE": -74.21761825, "STATE_ID": null, "NAICS_CODE": null, "OWNER": null, "TTL_STAFF": null, "BEDS": 9999999, "TRAUMA": null }, "geometry": { "type": "Point", "coordinates": [ -74.217616258660982, 40.109090499198629 ] } },
{ "type": "Feature", "properties": { "OBJECTID": 37, "NAME": "Cape Community Health Center", "ADDRESS": "410 N. ROUTE 9", "CITY": "CAPE MAY COURT HOUSE", "STATE": "NJ", "ZIP": "08210", "TELEPHONE": "609-465-0258", "ALT_PHONE": null, "TYPE": "FEDERALLY QUALIFIED HEALTH CENTERS", "COUNTY": "CAPE MAY", "COUNTYFIPS": "34009", "ST_FIPS": "34", "COUNTRY": "US", "REGION": "SOUTH", "LATITUDE": 39.08969053, "LONGITUDE": -74.8158369, "STATE_ID": null, "NAICS_CODE": null, "OWNER": null, "TTL_STAFF": null, "BEDS": 9999999, "TRAUMA": null }, "geometry": { "type": "Point", "coordinates": [ -74.815834001214412, 39.089687971628095 ] } },
{ "type": "Feature", "properties": { "OBJECTID": 38, "NAME": "Atlanticare Regional Medical Center Mainland Division", "ADDRESS": "JIMMIE LEEDS ROAD", "CITY": "POMONA", "STATE": "NJ", "ZIP": "08240", "TELEPHONE": "609-652-1000", "ALT_PHONE": null, "TYPE": "ACUTE CARE HOSPITALS", "COUNTY": "ATLANTIC", "COUNTYFIPS": "34001", "ST_FIPS": "34", "COUNTRY": "US", "REGION": "SOUTH", "LATITUDE": 39.47907806, "LONGITUDE": -74.54036963, "STATE_ID": null, "NAICS_CODE": null, "OWNER": null, "TTL_STAFF": null, "BEDS": 349, "TRAUMA": null }, "geometry": { "type": "Point", "coordinates": [ -74.540369470384348, 39.479072586880456 ] } },
{ "type": "Feature", "properties": { "OBJECTID": 39, "NAME": "BAYSHORE MEDICAL CENTER", "ADDRESS": "727 NORTH BEERS STREET", "CITY": "HOLMDEL", "STATE": "NJ", "ZIP": "07733-1598", "TELEPHONE": "732-739-5900", "ALT_PHONE": null, "TYPE": "ACUTE CARE HOSPITALS", "COUNTY": "MONMOUTH", "COUNTYFIPS": "34025", "ST_FIPS": "34", "COUNTRY": "US", "REGION": "CENTRAL EAST", "LATITUDE": 40.40544696, "LONGITUDE": -74.19171603, "STATE_ID": null, "NAICS_CODE": null, "OWNER": null, "TTL_STAFF": null, "BEDS": 225, "TRAUMA": null }, "geometry": { "type": "Point", "coordinates": [ -74.191714932479925, 40.405438576639988 ] } },
{ "type": "Feature", "properties": { "OBJECTID": 40, "NAME": "Bayonne Medical Center", "ADDRESS": "29 E 29TH ST", "CITY": "BAYONNE", "STATE": "NJ", "ZIP": "07002-4695", "TELEPHONE": "201-858-5000", "ALT_PHONE": null, "TYPE": "ACUTE CARE HOSPITALS", "COUNTY": "HUDSON", "COUNTYFIPS": "34017", "ST_FIPS": "34", "COUNTRY": "US", "REGION": "NORTH EAST", "LATITUDE": 40.66807496, "LONGITUDE": -74.11264403, "STATE_ID": null, "NAICS_CODE": null, "OWNER": null, "TTL_STAFF": null, "BEDS": 278, "TRAUMA": null }, "geometry": { "type": "Point", "coordinates": [ -74.112642484073675, 40.668066536841494 ] } },
{ "type": "Feature", "properties": { "OBJECTID": 41, "NAME": "Bergen Regional Medical Center L.P.", "ADDRESS": "230 EAST RIDGEWOOD AVENUE", "CITY": "PARAMUS", "STATE": "NJ", "ZIP": "07652", "TELEPHONE": "201-967-4000", "ALT_PHONE": null, "TYPE": "ACUTE CARE HOSPITALS", "COUNTY": "BERGEN", "COUNTYFIPS": "34003", "ST_FIPS": "34", "COUNTRY": "US", "REGION": "NORTH EAST", "LATITUDE": 40.9563713, "LONGITUDE": -74.06251848, "STATE_ID": null, "NAICS_CODE": null, "OWNER": null, "TTL_STAFF": null, "BEDS": 1070, "TRAUMA": null }, "geometry": { "type": "Point", "coordinates": [ -74.062516655176381, 40.956362991407062 ] } },
{ "type": "Feature", "properties": { "OBJECTID": 42, "NAME": "Cape Regional Medical Center", "ADDRESS": "2 STONE HARBOR BOULEVARD", "CITY": "CAPE MAY COURT HOUSE", "STATE": "NJ", "ZIP": "08210", "TELEPHONE": "609-463-2000", "ALT_PHONE": "609-463-2688", "TYPE": "ACUTE CARE HOSPITALS", "COUNTY": "CAPE MAY", "COUNTYFIPS": "34009", "ST_FIPS": "34", "COUNTRY": "US", "REGION": "SOUTH", "LATITUDE": 39.0876219, "LONGITUDE": -74.81683061, "STATE_ID": null, "NAICS_CODE": null, "OWNER": null, "TTL_STAFF": null, "BEDS": 242, "TRAUMA": null }, "geometry": { "type": "Point", "coordinates": [ -74.816827709123714, 39.087619351783168 ] } },
{ "type": "Feature", "properties": { "OBJECTID": 43, "NAME": "Capital Health Regional Medical Center", "ADDRESS": "750 BRUNSWICK AVENUE", "CITY": "TRENTON", "STATE": "NJ", "ZIP": "08638", "TELEPHONE": "609-394-6000", "ALT_PHONE": null, "TYPE": "ACUTE CARE HOSPITALS", "COUNTY": "MERCER", "COUNTYFIPS": "34021", "ST_FIPS": "34", "COUNTRY": "US", "REGION": "CENTRAL WEST", "LATITUDE": 40.23614214, "LONGITUDE": -74.75198366, "STATE_ID": null, "NAICS_CODE": null, "OWNER": null, "TTL_STAFF": null, "BEDS": 269, "TRAUMA": "Level II" }, "geometry": { "type": "Point", "coordinates": [ -74.75198125410914, 40.23613430001096 ] } },
{ "type": "Feature", "properties": { "OBJECTID": 44, "NAME": "Capital Health System - Hopewell", "ADDRESS": "1 CAPITAL WAY", "CITY": "HOPEWELL", "STATE": "NJ", "ZIP": "08560", "TELEPHONE": "609-394-4000", "ALT_PHONE": null, "TYPE": "ACUTE CARE HOSPITALS", "COUNTY": "MERCER", "COUNTYFIPS": "34021", "ST_FIPS": "34", "COUNTRY": "US", "REGION": "CENTRAL WEST", "LATITUDE": 40.29222625, "LONGITUDE": -74.8054932, "STATE_ID": null, "NAICS_CODE": null, "OWNER": null, "TTL_STAFF": null, "BEDS": 350, "TRAUMA": null }, "geometry": { "type": "Point", "coordinates": [ -74.80549067109645, 40.292218339315475 ] } },
{ "type": "Feature", "properties": { "OBJECTID": 45, "NAME": "Chilton Medical Center", "ADDRESS": "97 WEST PARKWAY", "CITY": "POMPTON PLAINS", "STATE": "NJ", "ZIP": "07444", "TELEPHONE": "973-831-5000", "ALT_PHONE": "888-244-5866", "TYPE": "ACUTE CARE HOSPITALS", "COUNTY": "MORRIS", "COUNTYFIPS": "34027", "ST_FIPS": "34", "COUNTRY": "US", "REGION": "NORTH WEST", "LATITUDE": 40.95869659, "LONGITUDE": -74.31020881000001, "STATE_ID": null, "NAICS_CODE": null, "OWNER": null, "TTL_STAFF": null, "BEDS": 9999999, "TRAUMA": null }, "geometry": { "type": "Point", "coordinates": [ -74.310206769846729, 40.958688541551744 ] } },
{ "type": "Feature", "properties": { "OBJECTID": 46, "NAME": "Christ Hospital", "ADDRESS": "176 PALISADE AVENUE", "CITY": "JERSEY CITY", "STATE": "NJ", "ZIP": "07306", "TELEPHONE": "201-795-8200", "ALT_PHONE": null, "TYPE": "ACUTE CARE HOSPITALS", "COUNTY": "HUDSON", "COUNTYFIPS": "34017", "ST_FIPS": "34", "COUNTRY": "US", "REGION": "NORTH EAST", "LATITUDE": 40.73426624, "LONGITUDE": -74.04983406, "STATE_ID": null, "NAICS_CODE": null, "OWNER": null, "TTL_STAFF": null, "BEDS": 402, "TRAUMA": null }, "geometry": { "type": "Point", "coordinates": [ -74.049832322165727, 40.734257602997936 ] } },
{ "type": "Feature", "properties": { "OBJECTID": 47, "NAME": "Clara Maass Medical Center", "ADDRESS": "ONE CLARA MAASS DRIVE", "CITY": "BELLEVILLE", "STATE": "NJ", "ZIP": "07109", "TELEPHONE": "973-450-2000", "ALT_PHONE": null, "TYPE": "ACUTE CARE HOSPITALS", "COUNTY": "ESSEX", "COUNTYFIPS": "34013", "ST_FIPS": "34", "COUNTRY": "US", "REGION": "NORTH EAST", "LATITUDE": 40.78563228, "LONGITUDE": -74.17599806, "STATE_ID": null, "NAICS_CODE": null, "OWNER": null, "TTL_STAFF": null, "BEDS": 445, "TRAUMA": null }, "geometry": { "type": "Point", "coordinates": [ -74.175996098158393, 40.785624040020849 ] } },
{ "type": "Feature", "properties": { "OBJECTID": 48, "NAME": "Community Medical Center", "ADDRESS": "99 HIGHWAY 37 WEST", "CITY": "TOMS RIVER", "STATE": "NJ", "ZIP": "08755", "TELEPHONE": "732-557-8000", "ALT_PHONE": null, "TYPE": "ACUTE CARE HOSPITALS", "COUNTY": "OCEAN", "COUNTYFIPS": "34029", "ST_FIPS": "34", "COUNTRY": "US", "REGION": "CENTRAL EAST", "LATITUDE": 39.96402405, "LONGITUDE": -74.21598804, "STATE_ID": null, "NAICS_CODE": null, "OWNER": null, "TTL_STAFF": null, "BEDS": 636, "TRAUMA": null }, "geometry": { "type": "Point", "coordinates": [ -74.215986297164378, 39.96401643366633 ] } },
{ "type": "Feature", "properties": { "OBJECTID": 49, "NAME": "Cooper Hospital/University Medical Center", "ADDRESS": "ONE COOPER PLAZA", "CITY": "CAMDEN", "STATE": "NJ", "ZIP": "08103", "TELEPHONE": "856-342-2000", "ALT_PHONE": "856-342-2400", "TYPE": "ACUTE CARE HOSPITALS", "COUNTY": "CAMDEN", "COUNTYFIPS": "34007", "ST_FIPS": "34", "COUNTRY": "US", "REGION": "SOUTH", "LATITUDE": 39.94160659, "LONGITUDE": -75.11643547, "STATE_ID": null, "NAICS_CODE": null, "OWNER": null, "TTL_STAFF": null, "BEDS": 491, "TRAUMA": "Level I" }, "geometry": { "type": "Point", "coordinates": [ -75.116432232744302, 39.941599949804427 ] } },
{ "type": "Feature", "properties": { "OBJECTID": 50, "NAME": "East Orange General Hospital", "ADDRESS": "300 CENTRAL AVENUE", "CITY": "EAST ORANGE", "STATE": "NJ", "ZIP": "07018-2897", "TELEPHONE": "973-674-8400", "ALT_PHONE": "973-266-4401", "TYPE": "ACUTE CARE HOSPITALS", "COUNTY": "ESSEX", "COUNTYFIPS": "34013", "ST_FIPS": "34", "COUNTRY": "US", "REGION": "NORTH EAST", "LATITUDE": 40.75448923, "LONGITUDE": -74.21367112, "STATE_ID": null, "NAICS_CODE": null, "OWNER": null, "TTL_STAFF": null, "BEDS": 211, "TRAUMA": null }, "geometry": { "type": "Point", "coordinates": [ -74.213669119066893, 40.754481096843008 ] } },
{ "type": "Feature", "properties": { "OBJECTID": 51, "NAME": "Englewood Hospital and Medical Center", "ADDRESS": "350 ENGLE STREET", "CITY": "ENGLEWOOD", "STATE": "NJ", "ZIP": "07631", "TELEPHONE": "201-894-3000", "ALT_PHONE": "201-894-3199", "TYPE": "ACUTE CARE HOSPITALS", "COUNTY": "BERGEN", "COUNTYFIPS": "34003", "ST_FIPS": "34", "COUNTRY": "US", "REGION": "NORTH EAST", "LATITUDE": 40.90446296, "LONGITUDE": -73.96844103, "STATE_ID": null, "NAICS_CODE": null, "OWNER": null, "TTL_STAFF": null, "BEDS": 536, "TRAUMA": null }, "geometry": { "type": "Point", "coordinates": [ -73.968439342653994, 40.904454381415022 ] } },
{ "type": "Feature", "properties": { "OBJECTID": 52, "NAME": "HACKENSACK MERIDIAN HEALTH PASACACK VALLEY MEDICAL", "ADDRESS": "250 OLD HOOK ROAD", "CITY": "WESTWOOD", "STATE": "NJ", "ZIP": "07675-3181", "TELEPHONE": null, "ALT_PHONE": null, "TYPE": "ACUTE CARE HOSPITALS", "COUNTY": "BERGEN", "COUNTYFIPS": "34003", "ST_FIPS": "34", "COUNTRY": "US", "REGION": "NORTH EAST", "LATITUDE": 40.98549868, "LONGITUDE": -74.01484494, "STATE_ID": null, "NAICS_CODE": null, "OWNER": null, "TTL_STAFF": null, "BEDS": 9999999, "TRAUMA": null }, "geometry": { "type": "Point", "coordinates": [ -74.014843177776299, 40.985490353043787 ] } },
{ "type": "Feature", "properties": { "OBJECTID": 53, "NAME": "Hackensack UMC Mountainside", "ADDRESS": "1 BAY AVENUE", "CITY": "MONTCLAIR", "STATE": "NJ", "ZIP": "07042", "TELEPHONE": "973-429-6000", "ALT_PHONE": "973-429-6600", "TYPE": "ACUTE CARE HOSPITALS", "COUNTY": "ESSEX", "COUNTYFIPS": "34013", "ST_FIPS": "34", "COUNTRY": "US", "REGION": "NORTH EAST", "LATITUDE": 40.81172696, "LONGITUDE": -74.20357403, "STATE_ID": null, "NAICS_CODE": null, "OWNER": null, "TTL_STAFF": null, "BEDS": 347, "TRAUMA": null }, "geometry": { "type": "Point", "coordinates": [ -74.203572031960292, 40.811718810263855 ] } },
{ "type": "Feature", "properties": { "OBJECTID": 54, "NAME": "Hackensack University Medical Center", "ADDRESS": "30 PROSPECT AVENUE", "CITY": "HACKENSACK", "STATE": "NJ", "ZIP": "07601", "TELEPHONE": "551-996-2000", "ALT_PHONE": null, "TYPE": "ACUTE CARE HOSPITALS", "COUNTY": "BERGEN", "COUNTYFIPS": "34003", "ST_FIPS": "34", "COUNTRY": "US", "REGION": "NORTH EAST", "LATITUDE": 40.88370396, "LONGITUDE": -74.05632303, "STATE_ID": null, "NAICS_CODE": null, "OWNER": null, "TTL_STAFF": null, "BEDS": 775, "TRAUMA": "Level II" }, "geometry": { "type": "Point", "coordinates": [ -74.056321219822593, 40.883695525271271 ] } },
{ "type": "Feature", "properties": { "OBJECTID": 55, "NAME": "Hackettstown Regional Medical Center", "ADDRESS": "651 WILLOW GROVE STREET", "CITY": "HACKETTSTOWN", "STATE": "NJ", "ZIP": "07840-1792", "TELEPHONE": "908-852-5100", "ALT_PHONE": "908-850-6800", "TYPE": "ACUTE CARE HOSPITALS", "COUNTY": "WARREN", "COUNTYFIPS": "34041", "ST_FIPS": "34", "COUNTRY": "US", "REGION": "NORTH WEST", "LATITUDE": 40.86175031, "LONGITUDE": -74.81592622, "STATE_ID": null, "NAICS_CODE": null, "OWNER": null, "TTL_STAFF": null, "BEDS": 111, "TRAUMA": null }, "geometry": { "type": "Point", "coordinates": [ -74.815924092608242, 40.861742283012561 ] } },
{ "type": "Feature", "properties": { "OBJECTID": 56, "NAME": "Hoboken University Medical Center", "ADDRESS": "308 WILLOW AVENUE", "CITY": "HOBOKEN", "STATE": "NJ", "ZIP": "07030", "TELEPHONE": "201-418-1000", "ALT_PHONE": "201-418-1900", "TYPE": "ACUTE CARE HOSPITALS", "COUNTY": "HUDSON", "COUNTYFIPS": "34017", "ST_FIPS": "34", "COUNTRY": "US", "REGION": "NORTH EAST", "LATITUDE": 40.74113826, "LONGITUDE": -74.03397246, "STATE_ID": null, "NAICS_CODE": null, "OWNER": null, "TTL_STAFF": null, "BEDS": 364, "TRAUMA": null }, "geometry": { "type": "Point", "coordinates": [ -74.033970716056373, 40.741129566125423 ] } },
{ "type": "Feature", "properties": { "OBJECTID": 57, "NAME": "Holy Name Medical Center", "ADDRESS": "718 TEANECK ROAD", "CITY": "TEANECK", "STATE": "NJ", "ZIP": "07666", "TELEPHONE": "201-833-3000", "ALT_PHONE": null, "TYPE": "ACUTE CARE HOSPITALS", "COUNTY": "BERGEN", "COUNTYFIPS": "34003", "ST_FIPS": "34", "COUNTRY": "US", "REGION": "NORTH EAST", "LATITUDE": 40.88288596, "LONGITUDE": -74.01047303, "STATE_ID": null, "NAICS_CODE": null, "OWNER": null, "TTL_STAFF": null, "BEDS": 361, "TRAUMA": null }, "geometry": { "type": "Point", "coordinates": [ -74.010471283467652, 40.882877429259551 ] } },
{ "type": "Feature", "properties": { "OBJECTID": 58, "NAME": "Hudson Regional Hospital", "ADDRESS": "55 MEADOWLANDS PARKWAY", "CITY": "SECAUCUS", "STATE": "NJ", "ZIP": "07096-1580", "TELEPHONE": "201-392-3200", "ALT_PHONE": null, "TYPE": "ACUTE CARE HOSPITALS", "COUNTY": "HUDSON", "COUNTYFIPS": "34017", "ST_FIPS": "34", "COUNTRY": "US", "REGION": "NORTH EAST", "LATITUDE": 40.79177598, "LONGITUDE": -74.07315311000001, "STATE_ID": null, "NAICS_CODE": null, "OWNER": null, "TTL_STAFF": null, "BEDS": 230, "TRAUMA": null }, "geometry": { "type": "Point", "coordinates": [ -74.07315128676683, 40.79176745157902 ] } },
{ "type": "Feature", "properties": { "OBJECTID": 59, "NAME": "Hunterdon Medical Center", "ADDRESS": "2100 WESCOTT DRIVE", "CITY": "FLEMINGTON", "STATE": "NJ", "ZIP": "08822", "TELEPHONE": "908-788-6100", "ALT_PHONE": null, "TYPE": "ACUTE CARE HOSPITALS", "COUNTY": "HUNTERDON", "COUNTYFIPS": "34019", "ST_FIPS": "34", "COUNTRY": "US", "REGION": "CENTRAL WEST", "LATITUDE": 40.53143719, "LONGITUDE": -74.86079971, "STATE_ID": null, "NAICS_CODE": null, "OWNER": null, "TTL_STAFF": null, "BEDS": 178, "TRAUMA": null }, "geometry": { "type": "Point", "coordinates": [ -74.860797221765921, 40.531429129121491 ] } },
{ "type": "Feature", "properties": { "OBJECTID": 60, "NAME": "Inspira Medical Center Elmer", "ADDRESS": "501 W FRONT STREET", "CITY": "ELMER", "STATE": "NJ", "ZIP": "08318", "TELEPHONE": "856-363-1000", "ALT_PHONE": null, "TYPE": "ACUTE CARE HOSPITALS", "COUNTY": "SALEM", "COUNTYFIPS": "34033", "ST_FIPS": "34", "COUNTRY": "US", "REGION": "SOUTH", "LATITUDE": 39.58779596, "LONGITUDE": -75.18075703, "STATE_ID": null, "NAICS_CODE": null, "OWNER": null, "TTL_STAFF": null, "BEDS": 91, "TRAUMA": null }, "geometry": { "type": "Point", "coordinates": [ -75.18075457756413, 39.58779089862314 ] } },
{ "type": "Feature", "properties": { "OBJECTID": 61, "NAME": "Inspira Medical Center Vineland", "ADDRESS": "1505 W. SHERMAN AVENUE", "CITY": "VINELAND", "STATE": "NJ", "ZIP": "08360", "TELEPHONE": "856-641-8000", "ALT_PHONE": null, "TYPE": "ACUTE CARE HOSPITALS", "COUNTY": "CUMBERLAND", "COUNTYFIPS": "34011", "ST_FIPS": "34", "COUNTRY": "US", "REGION": "SOUTH", "LATITUDE": 39.44535896, "LONGITUDE": -75.05883203, "STATE_ID": null, "NAICS_CODE": null, "OWNER": null, "TTL_STAFF": null, "BEDS": 262, "TRAUMA": null }, "geometry": { "type": "Point", "coordinates": [ -75.058830214834302, 39.445354981973928 ] } },
{ "type": "Feature", "properties": { "OBJECTID": 62, "NAME": "Inspira Medical Center Woodbury", "ADDRESS": "509 NORTH BROAD STREET", "CITY": "WOODBURY", "STATE": "NJ", "ZIP": "08096", "TELEPHONE": "856-845-0100", "ALT_PHONE": null, "TYPE": "ACUTE CARE HOSPITALS", "COUNTY": "GLOUCESTER", "COUNTYFIPS": "34015", "ST_FIPS": "34", "COUNTRY": "US", "REGION": "SOUTH", "LATITUDE": 39.84381521, "LONGITUDE": -75.14946124, "STATE_ID": null, "NAICS_CODE": null, "OWNER": null, "TTL_STAFF": null, "BEDS": 305, "TRAUMA": null }, "geometry": { "type": "Point", "coordinates": [ -75.149458171486785, 39.843808938451176 ] } },
{ "type": "Feature", "properties": { "OBJECTID": 63, "NAME": "JFK Medical Center", "ADDRESS": "65 JAMES ST.", "CITY": "EDISON", "STATE": "NJ", "ZIP": "08818", "TELEPHONE": "732-321-7000", "ALT_PHONE": "732-321-7615", "TYPE": "ACUTE CARE HOSPITALS", "COUNTY": "MIDDLESEX", "COUNTYFIPS": "34023", "ST_FIPS": "34", "COUNTRY": "US", "REGION": "CENTRAL EAST", "LATITUDE": 40.55674621, "LONGITUDE": -74.35025355000001, "STATE_ID": null, "NAICS_CODE": null, "OWNER": null, "TTL_STAFF": null, "BEDS": 399, "TRAUMA": null }, "geometry": { "type": "Point", "coordinates": [ -74.35025212097662, 40.556737844297473 ] } },
{ "type": "Feature", "properties": { "OBJECTID": 64, "NAME": "Jersey City Medical Center", "ADDRESS": "355 GRAND STREET", "CITY": "JERSEY CITY", "STATE": "NJ", "ZIP": "07302", "TELEPHONE": "201-915-2000", "ALT_PHONE": null, "TYPE": "ACUTE CARE HOSPITALS", "COUNTY": "HUDSON", "COUNTYFIPS": "34017", "ST_FIPS": "34", "COUNTRY": "US", "REGION": "NORTH EAST", "LATITUDE": 40.71613696, "LONGITUDE": -74.05095103, "STATE_ID": null, "NAICS_CODE": null, "OWNER": null, "TTL_STAFF": null, "BEDS": 356, "TRAUMA": "Level II" }, "geometry": { "type": "Point", "coordinates": [ -74.050949350191587, 40.716128352117686 ] } },
{ "type": "Feature", "properties": { "OBJECTID": 65, "NAME": "Jersey Shore University Medical Center", "ADDRESS": "1945 ROUTE 33", "CITY": "NEPTUNE", "STATE": "NJ", "ZIP": "07753", "TELEPHONE": "732-775-5500", "ALT_PHONE": null, "TYPE": "ACUTE CARE HOSPITALS", "COUNTY": "MONMOUTH", "COUNTYFIPS": "34025", "ST_FIPS": "34", "COUNTRY": "US", "REGION": "CENTRAL EAST", "LATITUDE": 40.20853507, "LONGITUDE": -74.04070779, "STATE_ID": null, "NAICS_CODE": null, "OWNER": null, "TTL_STAFF": null, "BEDS": 558, "TRAUMA": "Level II" }, "geometry": { "type": "Point", "coordinates": [ -74.040706935638156, 40.208527075111206 ] } },
{ "type": "Feature", "properties": { "OBJECTID": 66, "NAME": "Kennedy Memorial Hospitals UMC Cherry Hill", "ADDRESS": "2201 CHAPEL AVENUE WEST", "CITY": "CHERRY HILL", "STATE": "NJ", "ZIP": "08002", "TELEPHONE": "856-488-6500", "ALT_PHONE": "856-488-6816", "TYPE": "ACUTE CARE HOSPITALS", "COUNTY": "CAMDEN", "COUNTYFIPS": "34007", "ST_FIPS": "34", "COUNTRY": "US", "REGION": "SOUTH", "LATITUDE": 39.92806635, "LONGITUDE": -75.01611522, "STATE_ID": null, "NAICS_CODE": null, "OWNER": null, "TTL_STAFF": null, "BEDS": 229, "TRAUMA": null }, "geometry": { "type": "Point", "coordinates": [ -75.016112346199833, 39.928059541629999 ] } },
{ "type": "Feature", "properties": { "OBJECTID": 67, "NAME": "Kennedy Memorial Hospitals UMC Stratford", "ADDRESS": "18 EAST LAUREL ROAD", "CITY": "STRATFORD", "STATE": "NJ", "ZIP": "08084", "TELEPHONE": "856-346-6000", "ALT_PHONE": "856-346-7816", "TYPE": "ACUTE CARE HOSPITALS", "COUNTY": "CAMDEN", "COUNTYFIPS": "34007", "ST_FIPS": "34", "COUNTRY": "US", "REGION": "SOUTH", "LATITUDE": 39.82819056, "LONGITUDE": -75.00850319, "STATE_ID": null, "NAICS_CODE": null, "OWNER": null, "TTL_STAFF": null, "BEDS": 236, "TRAUMA": null }, "geometry": { "type": "Point", "coordinates": [ -75.008500729024021, 39.828184289399829 ] } },
{ "type": "Feature", "properties": { "OBJECTID": 68, "NAME": "Kennedy Memorial Hospitals UMC Washington Township", "ADDRESS": "435 HURFFVILLE-CROSS KEYS ROAD", "CITY": "TURNERSVILLE", "STATE": "NJ", "ZIP": "08012", "TELEPHONE": "856-582-2500", "ALT_PHONE": "856-582-2816", "TYPE": "ACUTE CARE HOSPITALS", "COUNTY": "GLOUCESTER", "COUNTYFIPS": "34015", "ST_FIPS": "34", "COUNTRY": "US", "REGION": "SOUTH", "LATITUDE": 39.73526903, "LONGITUDE": -75.06553673000001, "STATE_ID": null, "NAICS_CODE": null, "OWNER": null, "TTL_STAFF": null, "BEDS": 153, "TRAUMA": null }, "geometry": { "type": "Point", "coordinates": [ -75.065534357032647, 39.735263234912928 ] } },
{ "type": "Feature", "properties": { "OBJECTID": 69, "NAME": "Lourdes Medical Center of Burlington County", "ADDRESS": "218 SUNSET ROAD", "CITY": "WILLINGBORO", "STATE": "NJ", "ZIP": "08046", "TELEPHONE": "609-835-2900", "ALT_PHONE": null, "TYPE": "ACUTE CARE HOSPITALS", "COUNTY": "BURLINGTON", "COUNTYFIPS": "34005", "ST_FIPS": "34", "COUNTRY": "US", "REGION": "SOUTH", "LATITUDE": 40.04654396, "LONGITUDE": -74.88084903, "STATE_ID": null, "NAICS_CODE": null, "OWNER": null, "TTL_STAFF": null, "BEDS": 9999999, "TRAUMA": null }, "geometry": { "type": "Point", "coordinates": [ -74.880846616690064, 40.046536706353216 ] } },
{ "type": "Feature", "properties": { "OBJECTID": 70, "NAME": "Memorial Hospital of Salem County", "ADDRESS": "310 WOODSTOWN RD", "CITY": "SALEM", "STATE": "NJ", "ZIP": "08079", "TELEPHONE": "856-935-1000", "ALT_PHONE": "856-935-6059", "TYPE": "ACUTE CARE HOSPITALS", "COUNTY": "SALEM", "COUNTYFIPS": "34033", "ST_FIPS": "34", "COUNTRY": "US", "REGION": "SOUTH", "LATITUDE": 39.59358996, "LONGITUDE": -75.44452403, "STATE_ID": null, "NAICS_CODE": null, "OWNER": null, "TTL_STAFF": null, "BEDS": 140, "TRAUMA": null }, "geometry": { "type": "Point", "coordinates": [ -75.444520243998497, 39.593583883822284 ] } },
{ "type": "Feature", "properties": { "OBJECTID": 71, "NAME": "Monmouth Medical Center - Southern Campus", "ADDRESS": "600 RIVER AVENUE", "CITY": "LAKEWOOD", "STATE": "NJ", "ZIP": "08701-4281", "TELEPHONE": "732-363-1900", "ALT_PHONE": "732-886-4740", "TYPE": "ACUTE CARE HOSPITALS", "COUNTY": "OCEAN", "COUNTYFIPS": "34029", "ST_FIPS": "34", "COUNTRY": "US", "REGION": "CENTRAL EAST", "LATITUDE": 40.07322496, "LONGITUDE": -74.21851703, "STATE_ID": null, "NAICS_CODE": null, "OWNER": null, "TTL_STAFF": null, "BEDS": 353, "TRAUMA": null }, "geometry": { "type": "Point", "coordinates": [ -74.218514994703042, 40.073216915478461 ] } },
{ "type": "Feature", "properties": { "OBJECTID": 72, "NAME": "Morristown Medical Center", "ADDRESS": "100 MADISON AVENUE", "CITY": "MORRISTOWN", "STATE": "NJ", "ZIP": "07962-1956", "TELEPHONE": "973-971-5000", "ALT_PHONE": "973-971-5555", "TYPE": "ACUTE CARE HOSPITALS", "COUNTY": "MORRIS", "COUNTYFIPS": "34027", "ST_FIPS": "34", "COUNTRY": "US", "REGION": "NORTH WEST", "LATITUDE": 40.78950453, "LONGITUDE": -74.46548902000001, "STATE_ID": null, "NAICS_CODE": null, "OWNER": null, "TTL_STAFF": null, "BEDS": 693, "TRAUMA": "Level II" }, "geometry": { "type": "Point", "coordinates": [ -74.465487085823071, 40.789496523416055 ] } },
{ "type": "Feature", "properties": { "OBJECTID": 73, "NAME": "Newark Beth Israel Medical Center", "ADDRESS": "201 LYONS AVENUE AT OSBORNE", "CITY": "NEWARK", "STATE": "NJ", "ZIP": "07112", "TELEPHONE": "973-926-7000", "ALT_PHONE": null, "TYPE": "ACUTE CARE HOSPITALS", "COUNTY": "ESSEX", "COUNTYFIPS": "34013", "ST_FIPS": "34", "COUNTRY": "US", "REGION": "NORTH EAST", "LATITUDE": 40.70996128, "LONGITUDE": -74.21285678, "STATE_ID": null, "NAICS_CODE": null, "OWNER": null, "TTL_STAFF": null, "BEDS": 673, "TRAUMA": null }, "geometry": { "type": "Point", "coordinates": [ -74.212854984113179, 40.70995309253334 ] } },
{ "type": "Feature", "properties": { "OBJECTID": 74, "NAME": "Newton Medical Center", "ADDRESS": "175 HIGH STREET", "CITY": "NEWTON", "STATE": "NJ", "ZIP": "07860", "TELEPHONE": "973-383-2121", "ALT_PHONE": "973-579-8645", "TYPE": "ACUTE CARE HOSPITALS", "COUNTY": "SUSSEX", "COUNTYFIPS": "34037", "ST_FIPS": "34", "COUNTRY": "US", "REGION": "NORTH WEST", "LATITUDE": 41.0575623, "LONGITUDE": -74.76832271000001, "STATE_ID": null, "NAICS_CODE": null, "OWNER": null, "TTL_STAFF": null, "BEDS": 148, "TRAUMA": null }, "geometry": { "type": "Point", "coordinates": [ -74.768320826032095, 41.057554181970815 ] } },
{ "type": "Feature", "properties": { "OBJECTID": 75, "NAME": "Ocean Medical Center", "ADDRESS": "425 JACK MARTIN BOULEVARD", "CITY": "BRICK", "STATE": "NJ", "ZIP": "08724", "TELEPHONE": "732-840-2200", "ALT_PHONE": null, "TYPE": "ACUTE CARE HOSPITALS", "COUNTY": "OCEAN", "COUNTYFIPS": "34029", "ST_FIPS": "34", "COUNTRY": "US", "REGION": "CENTRAL EAST", "LATITUDE": 40.07732762, "LONGITUDE": -74.13139461, "STATE_ID": null, "NAICS_CODE": null, "OWNER": null, "TTL_STAFF": null, "BEDS": 287, "TRAUMA": null }, "geometry": { "type": "Point", "coordinates": [ -74.13139275012432, 40.077319573178087 ] } },
{ "type": "Feature", "properties": { "OBJECTID": 76, "NAME": "Our Lady of Lourdes Medical Center", "ADDRESS": "1600 HADDON AVENUE", "CITY": "CAMDEN", "STATE": "NJ", "ZIP": "08103", "TELEPHONE": "856-757-3500", "ALT_PHONE": null, "TYPE": "ACUTE CARE HOSPITALS", "COUNTY": "CAMDEN", "COUNTYFIPS": "34007", "ST_FIPS": "34", "COUNTRY": "US", "REGION": "SOUTH", "LATITUDE": 39.92789096, "LONGITUDE": -75.09504003000001, "STATE_ID": null, "NAICS_CODE": null, "OWNER": null, "TTL_STAFF": null, "BEDS": 410, "TRAUMA": null }, "geometry": { "type": "Point", "coordinates": [ -75.095036907924481, 39.92788431599616 ] } },
{ "type": "Feature", "properties": { "OBJECTID": 77, "NAME": "Overlook Medical Center", "ADDRESS": "99 BEAUVOIR AVENUE", "CITY": "SUMMIT", "STATE": "NJ", "ZIP": "07902-0220", "TELEPHONE": "908-522-5529", "ALT_PHONE": "908-522-2000X3383", "TYPE": "ACUTE CARE HOSPITALS", "COUNTY": "UNION", "COUNTYFIPS": "34039", "ST_FIPS": "34", "COUNTRY": "US", "REGION": "CENTRAL EAST", "LATITUDE": 40.71234796, "LONGITUDE": -74.35396303, "STATE_ID": null, "NAICS_CODE": null, "OWNER": null, "TTL_STAFF": null, "BEDS": 568, "TRAUMA": null }, "geometry": { "type": "Point", "coordinates": [ -74.353961144310489, 40.712339885095957 ] } },
{ "type": "Feature", "properties": { "OBJECTID": 78, "NAME": "Palisades Medical Center", "ADDRESS": "7600 RIVER ROAD", "CITY": "NORTH BERGEN", "STATE": "NJ", "ZIP": "07047", "TELEPHONE": "201-854-5000", "ALT_PHONE": null, "TYPE": "ACUTE CARE HOSPITALS", "COUNTY": "HUDSON", "COUNTYFIPS": "34017", "ST_FIPS": "34", "COUNTRY": "US", "REGION": "NORTH EAST", "LATITUDE": 40.7937799, "LONGITUDE": -73.99644701, "STATE_ID": null, "NAICS_CODE": null, "OWNER": null, "TTL_STAFF": null, "BEDS": 202, "TRAUMA": null }, "geometry": { "type": "Point", "coordinates": [ -73.996445287339611, 40.793771159934565 ] } },
{ "type": "Feature", "properties": { "OBJECTID": 79, "NAME": "Raritan Bay Medical Center - Old Bridge", "ADDRESS": "1 HOSPITAL PLAZA", "CITY": "OLD BRIDGE", "STATE": "NJ", "ZIP": "08857", "TELEPHONE": "732-360-1000", "ALT_PHONE": "732-442-3700", "TYPE": "ACUTE CARE HOSPITALS", "COUNTY": "MIDDLESEX", "COUNTYFIPS": "34023", "ST_FIPS": "34", "COUNTRY": "US", "REGION": "CENTRAL EAST", "LATITUDE": 40.38303548, "LONGITUDE": -74.32318877, "STATE_ID": null, "NAICS_CODE": null, "OWNER": null, "TTL_STAFF": null, "BEDS": 119, "TRAUMA": null }, "geometry": { "type": "Point", "coordinates": [ -74.323187213428412, 40.383027063704539 ] } },
{ "type": "Feature", "properties": { "OBJECTID": 80, "NAME": "Raritan Bay Medical Center - Perth Amboy", "ADDRESS": "530 NEW BRUNSWICK AVE", "CITY": "PERTH AMBOY", "STATE": "NJ", "ZIP": "08861", "TELEPHONE": "732-442-3700", "ALT_PHONE": null, "TYPE": "ACUTE CARE HOSPITALS", "COUNTY": "MIDDLESEX", "COUNTYFIPS": "34023", "ST_FIPS": "34", "COUNTRY": "US", "REGION": "CENTRAL EAST", "LATITUDE": 40.51917396, "LONGITUDE": -74.28092403, "STATE_ID": null, "NAICS_CODE": null, "OWNER": null, "TTL_STAFF": null, "BEDS": 388, "TRAUMA": null }, "geometry": { "type": "Point", "coordinates": [ -74.28092308317791, 40.519165511240772 ] } },
{ "type": "Feature", "properties": { "OBJECTID": 81, "NAME": "Riverview Medical Center", "ADDRESS": "1 RIVERVIEW PLAZA", "CITY": "RED BANK", "STATE": "NJ", "ZIP": "07701", "TELEPHONE": "732-741-2700", "ALT_PHONE": "732-741-2700", "TYPE": "ACUTE CARE HOSPITALS", "COUNTY": "MONMOUTH", "COUNTYFIPS": "34025", "ST_FIPS": "34", "COUNTRY": "US", "REGION": "CENTRAL EAST", "LATITUDE": 40.35384118, "LONGITUDE": -74.06345444, "STATE_ID": null, "NAICS_CODE": null, "OWNER": null, "TTL_STAFF": null, "BEDS": 492, "TRAUMA": null }, "geometry": { "type": "Point", "coordinates": [ -74.063453611015788, 40.353833045064079 ] } },
{ "type": "Feature", "properties": { "OBJECTID": 82, "NAME": "Robert Wood Johnson University Hospital", "ADDRESS": "ONE ROBERT WOOD JOHNSON PLACE", "CITY": "NEW BRUNSWICK", "STATE": "NJ", "ZIP": "08903-2601", "TELEPHONE": "732-828-3000", "ALT_PHONE": null, "TYPE": "ACUTE CARE HOSPITALS", "COUNTY": "MIDDLESEX", "COUNTYFIPS": "34023", "ST_FIPS": "34", "COUNTRY": "US", "REGION": "CENTRAL EAST", "LATITUDE": 40.49570029, "LONGITUDE": -74.44997408, "STATE_ID": null, "NAICS_CODE": null, "OWNER": null, "TTL_STAFF": null, "BEDS": 610, "TRAUMA": "Level I" }, "geometry": { "type": "Point", "coordinates": [ -74.449972237202203, 40.495691822274942 ] } },
{ "type": "Feature", "properties": { "OBJECTID": 83, "NAME": "Robert Wood Johnson University Hospital Somerset", "ADDRESS": "110 REHILL AVE", "CITY": "SOMERVILLE", "STATE": "NJ", "ZIP": "08876", "TELEPHONE": "908-685-2200", "ALT_PHONE": null, "TYPE": "ACUTE CARE HOSPITALS", "COUNTY": "SOMERSET", "COUNTYFIPS": "34035", "ST_FIPS": "34", "COUNTRY": "US", "REGION": "CENTRAL WEST", "LATITUDE": 40.56782659, "LONGITUDE": -74.59505337, "STATE_ID": null, "NAICS_CODE": null, "OWNER": null, "TTL_STAFF": null, "BEDS": 355, "TRAUMA": null }, "geometry": { "type": "Point", "coordinates": [ -74.595051234371823, 40.567818333226398 ] } },
{ "type": "Feature", "properties": { "OBJECTID": 84, "NAME": "Robert Wood Johnson University Hospital at Hamilton", "ADDRESS": "1 HAMILTON HEALTH PLACE", "CITY": "HAMILTON", "STATE": "NJ", "ZIP": "08690", "TELEPHONE": "609-586-7900", "ALT_PHONE": "609-584-0550", "TYPE": "ACUTE CARE HOSPITALS", "COUNTY": "MERCER", "COUNTYFIPS": "34021", "ST_FIPS": "34", "COUNTRY": "US", "REGION": "CENTRAL WEST", "LATITUDE": 40.21633384, "LONGITUDE": -74.67201578, "STATE_ID": null, "NAICS_CODE": null, "OWNER": null, "TTL_STAFF": null, "BEDS": 280, "TRAUMA": null }, "geometry": { "type": "Point", "coordinates": [ -74.672013570820468, 40.216326003298143 ] } },
{ "type": "Feature", "properties": { "OBJECTID": 85, "NAME": "Robert Wood Johnson University Hospital at Rahway", "ADDRESS": "865 STONE STREET", "CITY": "RAHWAY", "STATE": "NJ", "ZIP": "07065", "TELEPHONE": "732-381-4200", "ALT_PHONE": null, "TYPE": "ACUTE CARE HOSPITALS", "COUNTY": "UNION", "COUNTYFIPS": "34039", "ST_FIPS": "34", "COUNTRY": "US", "REGION": "CENTRAL EAST", "LATITUDE": 40.61313596, "LONGITUDE": -74.29127203, "STATE_ID": null, "NAICS_CODE": null, "OWNER": null, "TTL_STAFF": null, "BEDS": 251, "TRAUMA": null }, "geometry": { "type": "Point", "coordinates": [ -74.291270610447071, 40.613127689637139 ] } },
{ "type": "Feature", "properties": { "OBJECTID": 86, "NAME": "Saint Barnabas Medical Center", "ADDRESS": "94 OLD SHORT HILLS ROAD", "CITY": "LIVINGSTON", "STATE": "NJ", "ZIP": "07039", "TELEPHONE": "973-322-5000", "ALT_PHONE": "973-322-8258", "TYPE": "ACUTE CARE HOSPITALS", "COUNTY": "ESSEX", "COUNTYFIPS": "34013", "ST_FIPS": "34", "COUNTRY": "US", "REGION": "NORTH EAST", "LATITUDE": 40.76354765, "LONGITUDE": -74.30481638000001, "STATE_ID": null, "NAICS_CODE": null, "OWNER": null, "TTL_STAFF": null, "BEDS": 622, "TRAUMA": null }, "geometry": { "type": "Point", "coordinates": [ -74.30481435886135, 40.763539636918054 ] } },
{ "type": "Feature", "properties": { "OBJECTID": 87, "NAME": "Saint Clare's Hospital/Denville", "ADDRESS": "25 POCONO ROAD", "CITY": "DENVILLE", "STATE": "NJ", "ZIP": "07834-2995", "TELEPHONE": "973-625-6000", "ALT_PHONE": "973-983-2233", "TYPE": "ACUTE CARE HOSPITALS", "COUNTY": "MORRIS", "COUNTYFIPS": "34027", "ST_FIPS": "34", "COUNTRY": "US", "REGION": "NORTH WEST", "LATITUDE": 40.89499028, "LONGITUDE": -74.46532161, "STATE_ID": null, "NAICS_CODE": null, "OWNER": null, "TTL_STAFF": null, "BEDS": 9999999, "TRAUMA": null }, "geometry": { "type": "Point", "coordinates": [ -74.465319682811881, 40.894982236922885 ] } },
{ "type": "Feature", "properties": { "OBJECTID": 88, "NAME": "Saint Clare's Hospital/Dover", "ADDRESS": "400 WEST BLACKWELL ST", "CITY": "DOVER", "STATE": "NJ", "ZIP": "07801", "TELEPHONE": "973-989-3000", "ALT_PHONE": "973-989-3200", "TYPE": "ACUTE CARE HOSPITALS", "COUNTY": "MORRIS", "COUNTYFIPS": "34027", "ST_FIPS": "34", "COUNTRY": "US", "REGION": "NORTH WEST", "LATITUDE": 40.88518096, "LONGITUDE": -74.57640703, "STATE_ID": null, "NAICS_CODE": null, "OWNER": null, "TTL_STAFF": null, "BEDS": 60, "TRAUMA": null }, "geometry": { "type": "Point", "coordinates": [ -74.57640507397177, 40.885172935712099 ] } },
{ "type": "Feature", "properties": { "OBJECTID": 89, "NAME": "Saint Michael's Medical Center", "ADDRESS": "111 CENTRAL AVENUE", "CITY": "NEWARK", "STATE": "NJ", "ZIP": "07102", "TELEPHONE": "973-877-5000", "ALT_PHONE": "973-877-5411", "TYPE": "ACUTE CARE HOSPITALS", "COUNTY": "ESSEX", "COUNTYFIPS": "34013", "ST_FIPS": "34", "COUNTRY": "US", "REGION": "NORTH EAST", "LATITUDE": 40.74310998, "LONGITUDE": -74.17432409, "STATE_ID": null, "NAICS_CODE": null, "OWNER": null, "TTL_STAFF": null, "BEDS": 357, "TRAUMA": null }, "geometry": { "type": "Point", "coordinates": [ -74.174322170559591, 40.743101719984047 ] } },
{ "type": "Feature", "properties": { "OBJECTID": 90, "NAME": "Saint Peter's University Hospital", "ADDRESS": "254 EASTON AVENUE", "CITY": "NEW BRUNSWICK", "STATE": "NJ", "ZIP": "08901", "TELEPHONE": "732-745-8600", "ALT_PHONE": "732-843-4263", "TYPE": "ACUTE CARE HOSPITALS", "COUNTY": "MIDDLESEX", "COUNTYFIPS": "34023", "ST_FIPS": "34", "COUNTRY": "US", "REGION": "CENTRAL EAST", "LATITUDE": 40.5012952, "LONGITUDE": -74.45956064000001, "STATE_ID": null, "NAICS_CODE": null, "OWNER": null, "TTL_STAFF": null, "BEDS": 474, "TRAUMA": null }, "geometry": { "type": "Point", "coordinates": [ -74.459558746591824, 40.501286732138574 ] } },
{ "type": "Feature", "properties": { "OBJECTID": 91, "NAME": "Shore Medical Center", "ADDRESS": "ONE EAST NEW YORK AVENUE", "CITY": "SOMMERS POINT", "STATE": "NJ", "ZIP": "08244", "TELEPHONE": "609-653-3500", "ALT_PHONE": "609-653-3545", "TYPE": "ACUTE CARE HOSPITALS", "COUNTY": "ATLANTIC", "COUNTYFIPS": "34001", "ST_FIPS": "34", "COUNTRY": "US", "REGION": "SOUTH", "LATITUDE": 39.31473996, "LONGITUDE": -74.59361203, "STATE_ID": null, "NAICS_CODE": null, "OWNER": null, "TTL_STAFF": null, "BEDS": 332, "TRAUMA": null }, "geometry": { "type": "Point", "coordinates": [ -74.59361118325522, 39.314736009663847 ] } },
{ "type": "Feature", "properties": { "OBJECTID": 92, "NAME": "Southern Ocean Medical Center", "ADDRESS": "1140 ROUTE 72 WEST", "CITY": "MANAHAWKIN", "STATE": "NJ", "ZIP": "08050", "TELEPHONE": "609-597-6011", "ALT_PHONE": "609-978-8900", "TYPE": "ACUTE CARE HOSPITALS", "COUNTY": "OCEAN", "COUNTYFIPS": "34029", "ST_FIPS": "34", "COUNTRY": "US", "REGION": "CENTRAL EAST", "LATITUDE": 39.72106628, "LONGITUDE": -74.2846611, "STATE_ID": null, "NAICS_CODE": null, "OWNER": null, "TTL_STAFF": null, "BEDS": 176, "TRAUMA": null }, "geometry": { "type": "Point", "coordinates": [ -74.284661764078976, 39.721060425709268 ] } },
{ "type": "Feature", "properties": { "OBJECTID": 93, "NAME": "St Luke's Warren Hospital", "ADDRESS": "185 ROSEBERRY ST.", "CITY": "PHILLIPSBURG", "STATE": "NJ", "ZIP": "08865", "TELEPHONE": "908-847-6700", "ALT_PHONE": "908-847-6800", "TYPE": "ACUTE CARE HOSPITALS", "COUNTY": "WARREN", "COUNTYFIPS": "34041", "ST_FIPS": "34", "COUNTRY": "US", "REGION": "NORTH WEST", "LATITUDE": 40.70204496, "LONGITUDE": -75.17845703, "STATE_ID": null, "NAICS_CODE": null, "OWNER": null, "TTL_STAFF": null, "BEDS": 214, "TRAUMA": null }, "geometry": { "type": "Point", "coordinates": [ -75.1784538743767, 40.702037368740768 ] } },
{ "type": "Feature", "properties": { "OBJECTID": 94, "NAME": "Chambers Manor Family Practice", "ADDRESS": "317 CHAMBERS STREET", "CITY": "TRENTON", "STATE": "NJ", "ZIP": "08609", "TELEPHONE": "609-278-5900", "ALT_PHONE": null, "TYPE": "FEDERALLY QUALIFIED HEALTH CENTERS", "COUNTY": "MERCER", "COUNTYFIPS": "34021", "ST_FIPS": "34", "COUNTRY": "US", "REGION": "CENTRAL WEST", "LATITUDE": 40.21908334, "LONGITUDE": -74.74465359, "STATE_ID": null, "NAICS_CODE": null, "OWNER": null, "TTL_STAFF": null, "BEDS": 9999999, "TRAUMA": null }, "geometry": { "type": "Point", "coordinates": [ -74.744651265858195, 40.219075561173632 ] } },
{ "type": "Feature", "properties": { "OBJECTID": 95, "NAME": "Christopher Columbus", "ADDRESS": "115 CHRISTOPHER COLUMBUS DR", "CITY": "JERSEY CITY", "STATE": "NJ", "ZIP": "07302", "TELEPHONE": "201-710-2200", "ALT_PHONE": "201-451-6300", "TYPE": "FEDERALLY QUALIFIED HEALTH CENTERS", "COUNTY": "HUDSON", "COUNTYFIPS": "34017", "ST_FIPS": "34", "COUNTRY": "US", "REGION": "NORTH EAST", "LATITUDE": 40.7197072, "LONGITUDE": -74.04392467, "STATE_ID": null, "NAICS_CODE": null, "OWNER": null, "TTL_STAFF": null, "BEDS": 9999999, "TRAUMA": null }, "geometry": { "type": "Point", "coordinates": [ -74.043922988970877, 40.71969857294016 ] } },
{ "type": "Feature", "properties": { "OBJECTID": 96, "NAME": "Clinton Elementary School", "ADDRESS": "CLINTON AVE AND W 4TH ST", "CITY": "PLAINFIELD", "STATE": "NJ", "ZIP": "07063", "TELEPHONE": "908-731-4288", "ALT_PHONE": null, "TYPE": "FEDERALLY QUALIFIED HEALTH CENTERS", "COUNTY": "UNION", "COUNTYFIPS": "34039", "ST_FIPS": "34", "COUNTRY": "US", "REGION": "CENTRAL EAST", "LATITUDE": 40.59908494, "LONGITUDE": -74.44152882, "STATE_ID": null, "NAICS_CODE": null, "OWNER": null, "TTL_STAFF": null, "BEDS": 9999999, "TRAUMA": null }, "geometry": { "type": "Point", "coordinates": [ -74.441526969551248, 40.599076659865418 ] } },
{ "type": "Feature", "properties": { "OBJECTID": 97, "NAME": "Colt Connection - Cumberland Regional High School", "ADDRESS": "90 SILVER LAKE ROAD", "CITY": "SEABROOK", "STATE": "NJ", "ZIP": "08302", "TELEPHONE": "856-451-9400", "ALT_PHONE": null, "TYPE": "FEDERALLY QUALIFIED HEALTH CENTERS", "COUNTY": "CUMBERLAND", "COUNTYFIPS": "34011", "ST_FIPS": "34", "COUNTRY": "US", "REGION": "SOUTH", "LATITUDE": 39.47487792, "LONGITUDE": -75.22048252, "STATE_ID": null, "NAICS_CODE": null, "OWNER": null, "TTL_STAFF": null, "BEDS": 9999999, "TRAUMA": null }, "geometry": { "type": "Point", "coordinates": [ -75.220479972831882, 39.474873187725315 ] } },
{ "type": "Feature", "properties": { "OBJECTID": 98, "NAME": "CompleteCare Adult & Women's Medical Professionals", "ADDRESS": "70 COHANSEY ST", "CITY": "BRIDGETON", "STATE": "NJ", "ZIP": "08302", "TELEPHONE": null, "ALT_PHONE": null, "TYPE": "FEDERALLY QUALIFIED HEALTH CENTERS", "COUNTY": "CUMBERLAND", "COUNTYFIPS": "34011", "ST_FIPS": "34", "COUNTRY": "US", "REGION": "SOUTH", "LATITUDE": 39.43103801, "LONGITUDE": -75.23429331, "STATE_ID": null, "NAICS_CODE": null, "OWNER": null, "TTL_STAFF": null, "BEDS": 9999999, "TRAUMA": null }, "geometry": { "type": "Point", "coordinates": [ -75.234290485229721, 39.431033119181578 ] } },
{ "type": "Feature", "properties": { "OBJECTID": 99, "NAME": "CompleteCare Bridgeton - Medical and Dental Health Professionals", "ADDRESS": "105 MANHEIM AVENUE", "CITY": "BRIDGETON", "STATE": "NJ", "ZIP": "08302", "TELEPHONE": "856-451-4700X2320", "ALT_PHONE": null, "TYPE": "FEDERALLY QUALIFIED HEALTH CENTERS", "COUNTY": "CUMBERLAND", "COUNTYFIPS": "34011", "ST_FIPS": "34", "COUNTRY": "US", "REGION": "SOUTH", "LATITUDE": 39.43540353, "LONGITUDE": -75.21840559, "STATE_ID": null, "NAICS_CODE": null, "OWNER": null, "TTL_STAFF": null, "BEDS": 9999999, "TRAUMA": null }, "geometry": { "type": "Point", "coordinates": [ -75.218402873076386, 39.435398738544677 ] } },
{ "type": "Feature", "properties": { "OBJECTID": 100, "NAME": "CompleteCare Health Network", "ADDRESS": "53 SOUTH LAUREL ST", "CITY": "BRIDGETON", "STATE": "NJ", "ZIP": "08302", "TELEPHONE": "856-451-4700", "ALT_PHONE": null, "TYPE": "FEDERALLY QUALIFIED HEALTH CENTERS", "COUNTY": "CUMBERLAND", "COUNTYFIPS": "34011", "ST_FIPS": "34", "COUNTRY": "US", "REGION": "SOUTH", "LATITUDE": 39.42770686, "LONGITUDE": -75.23470148, "STATE_ID": null, "NAICS_CODE": null, "OWNER": null, "TTL_STAFF": null, "BEDS": 9999999, "TRAUMA": null }, "geometry": { "type": "Point", "coordinates": [ -75.234698637536084, 39.427701966556718 ] } },
{ "type": "Feature", "properties": { "OBJECTID": 101, "NAME": "CompleteCare Vineland RiteCare", "ADDRESS": "215 STHY 47", "CITY": "VINELAND", "STATE": "NJ", "ZIP": "08360", "TELEPHONE": null, "ALT_PHONE": null, "TYPE": "FEDERALLY QUALIFIED HEALTH CENTERS", "COUNTY": "CUMBERLAND", "COUNTYFIPS": "34011", "ST_FIPS": "34", "COUNTRY": "US", "REGION": "SOUTH", "LATITUDE": 39.48484534, "LONGITUDE": -75.04939924, "STATE_ID": null, "NAICS_CODE": null, "OWNER": null, "TTL_STAFF": null, "BEDS": 9999999, "TRAUMA": null }, "geometry": { "type": "Point", "coordinates": [ -75.049397760153681, 39.484841351711609 ] } },
{ "type": "Feature", "properties": { "OBJECTID": 102, "NAME": "East Orange Primary Care Center", "ADDRESS": "444 WILLIAM STREET", "CITY": "EAST ORANGE", "STATE": "NJ", "ZIP": "07017", "TELEPHONE": "973-675-1900X1003", "ALT_PHONE": "973-675-1900X1064", "TYPE": "FEDERALLY QUALIFIED HEALTH CENTERS", "COUNTY": "ESSEX", "COUNTYFIPS": "34013", "ST_FIPS": "34", "COUNTRY": "US", "REGION": "NORTH EAST", "LATITUDE": 40.76583376, "LONGITUDE": -74.21297137000001, "STATE_ID": null, "NAICS_CODE": null, "OWNER": null, "TTL_STAFF": null, "BEDS": 9999999, "TRAUMA": null }, "geometry": { "type": "Point", "coordinates": [ -74.212969365897592, 40.765825632589973 ] } },
{ "type": "Feature", "properties": { "OBJECTID": 103, "NAME": "Eric B. Chandler Health Center", "ADDRESS": "277 GEORGE STREET", "CITY": "NEW BRUNSWICK", "STATE": "NJ", "ZIP": "08901", "TELEPHONE": "732-235-6700", "ALT_PHONE": null, "TYPE": "FEDERALLY QUALIFIED HEALTH CENTERS", "COUNTY": "MIDDLESEX", "COUNTYFIPS": "34023", "ST_FIPS": "34", "COUNTRY": "US", "REGION": "CENTRAL EAST", "LATITUDE": 40.49172678, "LONGITUDE": -74.44277088, "STATE_ID": null, "NAICS_CODE": null, "OWNER": null, "TTL_STAFF": null, "BEDS": 9999999, "TRAUMA": null }, "geometry": { "type": "Point", "coordinates": [ -74.44276907484263, 40.491718322954846 ] } },
{ "type": "Feature", "properties": { "OBJECTID": 104, "NAME": "Eric B. Chandler Health Center Church Street Annex", "ADDRESS": "123 CHURCH STREET", "CITY": "NEW BRUNSWICK", "STATE": "NJ", "ZIP": "08901", "TELEPHONE": "732-235-2052", "ALT_PHONE": null, "TYPE": "FEDERALLY QUALIFIED HEALTH CENTERS", "COUNTY": "MIDDLESEX", "COUNTYFIPS": "34023", "ST_FIPS": "34", "COUNTRY": "US", "REGION": "CENTRAL EAST", "LATITUDE": 40.49600083, "LONGITUDE": -74.44442262, "STATE_ID": null, "NAICS_CODE": null, "OWNER": null, "TTL_STAFF": null, "BEDS": 9999999, "TRAUMA": null }, "geometry": { "type": "Point", "coordinates": [ -74.444420809788397, 40.495992360789884 ] } },
{ "type": "Feature", "properties": { "OBJECTID": 105, "NAME": "Ewing Health Center", "ADDRESS": "112 EWING ST", "CITY": "TRENTON", "STATE": "NJ", "ZIP": "08609", "TELEPHONE": "609-278-5900", "ALT_PHONE": null, "TYPE": "FEDERALLY QUALIFIED HEALTH CENTERS", "COUNTY": "MERCER", "COUNTYFIPS": "34021", "ST_FIPS": "34", "COUNTRY": "US", "REGION": "CENTRAL WEST", "LATITUDE": 40.22469122, "LONGITUDE": -74.75638387, "STATE_ID": null, "NAICS_CODE": null, "OWNER": null, "TTL_STAFF": null, "BEDS": 9999999, "TRAUMA": null }, "geometry": { "type": "Point", "coordinates": [ -74.756381503483752, 40.22468342383798 ] } },
{ "type": "Feature", "properties": { "OBJECTID": 106, "NAME": "George Washington Carver", "ADDRESS": "333 CLINTON PLACE", "CITY": "NEWARK", "STATE": "NJ", "ZIP": "07112", "TELEPHONE": "973-705-3880", "ALT_PHONE": null, "TYPE": "FEDERALLY QUALIFIED HEALTH CENTERS", "COUNTY": "ESSEX", "COUNTYFIPS": "34013", "ST_FIPS": "34", "COUNTRY": "US", "REGION": "NORTH EAST", "LATITUDE": 40.71250073, "LONGITUDE": -74.21538565, "STATE_ID": null, "NAICS_CODE": null, "OWNER": null, "TTL_STAFF": null, "BEDS": 9999999, "TRAUMA": null }, "geometry": { "type": "Point", "coordinates": [ -74.215383833345001, 40.712492555063456 ] } },
{ "type": "Feature", "properties": { "OBJECTID": 107, "NAME": "Glassboro Community Health Center", "ADDRESS": "335 DELSEA DRIVE N", "CITY": "GLASSBORO", "STATE": "NJ", "ZIP": "08028", "TELEPHONE": "856-863-5720", "ALT_PHONE": null, "TYPE": "FEDERALLY QUALIFIED HEALTH CENTERS", "COUNTY": "GLOUCESTER", "COUNTYFIPS": "34015", "ST_FIPS": "34", "COUNTRY": "US", "REGION": "SOUTH", "LATITUDE": 39.71012098, "LONGITUDE": -75.11025234, "STATE_ID": null, "NAICS_CODE": null, "OWNER": null, "TTL_STAFF": null, "BEDS": 9999999, "TRAUMA": null }, "geometry": { "type": "Point", "coordinates": [ -75.110249849553838, 39.710115305828403 ] } },
{ "type": "Feature", "properties": { "OBJECTID": 108, "NAME": "Hammonton Center", "ADDRESS": "860 S. WHITE HORSE PIKE", "CITY": "HAMMONTON", "STATE": "NJ", "ZIP": "08037", "TELEPHONE": "609-567-0200", "ALT_PHONE": null, "TYPE": "FEDERALLY QUALIFIED HEALTH CENTERS", "COUNTY": "ATLANTIC", "COUNTYFIPS": "34001", "ST_FIPS": "34", "COUNTRY": "US", "REGION": "SOUTH", "LATITUDE": 39.6206831, "LONGITUDE": -74.77440801, "STATE_ID": null, "NAICS_CODE": null, "OWNER": null, "TTL_STAFF": null, "BEDS": 9999999, "TRAUMA": null }, "geometry": { "type": "Point", "coordinates": [ -74.774407148374422, 39.62067780338063 ] } },
{ "type": "Feature", "properties": { "OBJECTID": 109, "NAME": "Hammonton Dental Center", "ADDRESS": "310 BELLEVUE AVENUE", "CITY": "HAMMONTON", "STATE": "NJ", "ZIP": "08037", "TELEPHONE": "609-561-9150", "ALT_PHONE": null, "TYPE": "FEDERALLY QUALIFIED HEALTH CENTERS", "COUNTY": "ATLANTIC", "COUNTYFIPS": "34001", "ST_FIPS": "34", "COUNTRY": "US", "REGION": "SOUTH", "LATITUDE": 39.63747618, "LONGITUDE": -74.80151903, "STATE_ID": null, "NAICS_CODE": null, "OWNER": null, "TTL_STAFF": null, "BEDS": 9999999, "TRAUMA": null }, "geometry": { "type": "Point", "coordinates": [ -74.801518139858786, 39.637470915032999 ] } },
{ "type": "Feature", "properties": { "OBJECTID": 110, "NAME": "Henry J. Austin Health Center, Inc (Warren St)", "ADDRESS": "321 N WARREN ST", "CITY": "TRENTON", "STATE": "NJ", "ZIP": "08618", "TELEPHONE": "609-278-5900", "ALT_PHONE": null, "TYPE": "FEDERALLY QUALIFIED HEALTH CENTERS", "COUNTY": "MERCER", "COUNTYFIPS": "34021", "ST_FIPS": "34", "COUNTRY": "US", "REGION": "CENTRAL WEST", "LATITUDE": 40.2252889, "LONGITUDE": -74.76521348, "STATE_ID": null, "NAICS_CODE": null, "OWNER": null, "TTL_STAFF": null, "BEDS": 9999999, "TRAUMA": null }, "geometry": { "type": "Point", "coordinates": [ -74.765211087197741, 40.225281110007408 ] } },
{ "type": "Feature", "properties": { "OBJECTID": 111, "NAME": "Highlands Health Van of Zufall Health Center", "ADDRESS": "17 S WARREN ST", "CITY": "DOVER", "STATE": "NJ", "ZIP": "07801", "TELEPHONE": "908-968-0898", "ALT_PHONE": null, "TYPE": "FEDERALLY QUALIFIED HEALTH CENTERS", "COUNTY": "MORRIS", "COUNTYFIPS": "34027", "ST_FIPS": "34", "COUNTRY": "US", "REGION": "NORTH WEST", "LATITUDE": 40.8834545, "LONGITUDE": -74.55950234, "STATE_ID": null, "NAICS_CODE": null, "OWNER": null, "TTL_STAFF": null, "BEDS": 9999999, "TRAUMA": null }, "geometry": { "type": "Point", "coordinates": [ -74.559500399403504, 40.88344647011607 ] } },
{ "type": "Feature", "properties": { "OBJECTID": 112, "NAME": "Rutgers Community Health Center", "ADDRESS": "65 BERGEN ST", "CITY": "NEWARK", "STATE": "NJ", "ZIP": "07107", "TELEPHONE": "973-972-9620", "ALT_PHONE": null, "TYPE": "FEDERALLY QUALIFIED HEALTH CENTERS", "COUNTY": "ESSEX", "COUNTYFIPS": "34013", "ST_FIPS": "34", "COUNTRY": "US", "REGION": "NORTH EAST", "LATITUDE": 40.74341918, "LONGITUDE": -74.19138084, "STATE_ID": null, "NAICS_CODE": null, "OWNER": null, "TTL_STAFF": null, "BEDS": 9999999, "TRAUMA": null }, "geometry": { "type": "Point", "coordinates": [ -74.191378899543679, 40.743410970354063 ] } },
{ "type": "Feature", "properties": { "OBJECTID": 113, "NAME": "Saint James Health", "ADDRESS": "228 LAFAYETTE ST", "CITY": "NEWARK", "STATE": "NJ", "ZIP": "07105", "TELEPHONE": "973-789-8111", "ALT_PHONE": null, "TYPE": "FEDERALLY QUALIFIED HEALTH CENTERS", "COUNTY": "ESSEX", "COUNTYFIPS": "34013", "ST_FIPS": "34", "COUNTRY": "US", "REGION": "NORTH EAST", "LATITUDE": 40.72896997, "LONGITUDE": -74.16271611000001, "STATE_ID": null, "NAICS_CODE": null, "OWNER": null, "TTL_STAFF": null, "BEDS": 9999999, "TRAUMA": null }, "geometry": { "type": "Point", "coordinates": [ -74.162714271172575, 40.728961668794653 ] } },
{ "type": "Feature", "properties": { "OBJECTID": 114, "NAME": "Salem Center", "ADDRESS": "238 EAST BROADWAY", "CITY": "SALEM", "STATE": "NJ", "ZIP": "08079", "TELEPHONE": "856-935-7711", "ALT_PHONE": null, "TYPE": "FEDERALLY QUALIFIED HEALTH CENTERS", "COUNTY": "SALEM", "COUNTYFIPS": "34033", "ST_FIPS": "34", "COUNTRY": "US", "REGION": "SOUTH", "LATITUDE": 39.57046426, "LONGITUDE": -75.46439746, "STATE_ID": null, "NAICS_CODE": null, "OWNER": null, "TTL_STAFF": null, "BEDS": 9999999, "TRAUMA": null }, "geometry": { "type": "Point", "coordinates": [ -75.464393557080982, 39.570458198132378 ] } },
{ "type": "Feature", "properties": { "OBJECTID": 115, "NAME": "Snyder High School", "ADDRESS": "239 BERGEN AVENUE", "CITY": "JERSEY CITY", "STATE": "NJ", "ZIP": "07503", "TELEPHONE": "201-915-6220", "ALT_PHONE": null, "TYPE": "FEDERALLY QUALIFIED HEALTH CENTERS", "COUNTY": "HUDSON", "COUNTYFIPS": "34017", "ST_FIPS": "34", "COUNTRY": "US", "REGION": "NORTH EAST", "LATITUDE": 40.71010374, "LONGITUDE": -74.08406916, "STATE_ID": null, "NAICS_CODE": null, "OWNER": null, "TTL_STAFF": null, "BEDS": 9999999, "TRAUMA": null }, "geometry": { "type": "Point", "coordinates": [ -74.084067468837389, 40.710095227587715 ] } },
{ "type": "Feature", "properties": { "OBJECTID": 116, "NAME": "Southern Jersey Family Medical Center - Buttonwood", "ADDRESS": "600 PEMBERTON-BROWNS MILLS ROAD", "CITY": "PEMBERTON", "STATE": "NJ", "ZIP": "08064", "TELEPHONE": "609-894-1100", "ALT_PHONE": null, "TYPE": "FEDERALLY QUALIFIED HEALTH CENTERS", "COUNTY": "BURLINGTON", "COUNTYFIPS": "34005", "ST_FIPS": "34", "COUNTRY": "US", "REGION": "SOUTH", "LATITUDE": 39.9677224, "LONGITUDE": -74.63729912, "STATE_ID": null, "NAICS_CODE": null, "OWNER": null, "TTL_STAFF": null, "BEDS": 9999999, "TRAUMA": null }, "geometry": { "type": "Point", "coordinates": [ -74.637298167960935, 39.967715608590069 ] } },
{ "type": "Feature", "properties": { "OBJECTID": 117, "NAME": "Southern Jersey Family Medical Centers", "ADDRESS": "1 WHITE HORSE CENTRE", "CITY": "HAMMONTON", "STATE": "NJ", "ZIP": "08037", "TELEPHONE": "609-567-0434", "ALT_PHONE": null, "TYPE": "FEDERALLY QUALIFIED HEALTH CENTERS", "COUNTY": "ATLANTIC", "COUNTYFIPS": "34001", "ST_FIPS": "34", "COUNTRY": "US", "REGION": "SOUTH", "LATITUDE": 39.6190067, "LONGITUDE": -74.77504425, "STATE_ID": null, "NAICS_CODE": null, "OWNER": null, "TTL_STAFF": null, "BEDS": 9999999, "TRAUMA": null }, "geometry": { "type": "Point", "coordinates": [ -74.775043381805773, 39.619001401381247 ] } },
{ "type": "Feature", "properties": { "OBJECTID": 118, "NAME": "Stillman Elementary School", "ADDRESS": "201 W. 4TH STREET", "CITY": "PLAINFIELD", "STATE": "NJ", "ZIP": "07060", "TELEPHONE": "908-731-4288", "ALT_PHONE": null, "TYPE": "FEDERALLY QUALIFIED HEALTH CENTERS", "COUNTY": "UNION", "COUNTYFIPS": "34039", "ST_FIPS": "34", "COUNTRY": "US", "REGION": "CENTRAL EAST", "LATITUDE": 40.6155903, "LONGITUDE": -74.42184553, "STATE_ID": null, "NAICS_CODE": null, "OWNER": null, "TTL_STAFF": null, "BEDS": 9999999, "TRAUMA": null }, "geometry": { "type": "Point", "coordinates": [ -74.421843718938163, 40.615582048664884 ] } },
{ "type": "Feature", "properties": { "OBJECTID": 119, "NAME": "Teen Center - Bridgeton High School", "ADDRESS": "111 N. WEST AVENUE", "CITY": "BRIDGETON", "STATE": "NJ", "ZIP": "08302", "TELEPHONE": "856-451-4440", "ALT_PHONE": null, "TYPE": "FEDERALLY QUALIFIED HEALTH CENTERS", "COUNTY": "CUMBERLAND", "COUNTYFIPS": "34011", "ST_FIPS": "34", "COUNTRY": "US", "REGION": "SOUTH", "LATITUDE": 39.43821777, "LONGITUDE": -75.24491959, "STATE_ID": null, "NAICS_CODE": null, "OWNER": null, "TTL_STAFF": null, "BEDS": 9999999, "TRAUMA": null }, "geometry": { "type": "Point", "coordinates": [ -75.244916745820959, 39.438212844895624 ] } },
{ "type": "Feature", "properties": { "OBJECTID": 120, "NAME": "Teen Health Center - Malcolm X Shabazz", "ADDRESS": "80 JOHNSON AVENUE", "CITY": "NEWARK", "STATE": "NJ", "ZIP": "07108", "TELEPHONE": "973-623-8592", "ALT_PHONE": null, "TYPE": "FEDERALLY QUALIFIED HEALTH CENTERS", "COUNTY": "ESSEX", "COUNTYFIPS": "34013", "ST_FIPS": "34", "COUNTRY": "US", "REGION": "NORTH EAST", "LATITUDE": 40.71838623, "LONGITUDE": -74.19193536, "STATE_ID": null, "NAICS_CODE": null, "OWNER": null, "TTL_STAFF": null, "BEDS": 9999999, "TRAUMA": null }, "geometry": { "type": "Point", "coordinates": [ -74.191933543134439, 40.718377998913347 ] } },
{ "type": "Feature", "properties": { "OBJECTID": 121, "NAME": "The Bear Zone at Barringer High School", "ADDRESS": "90 PARKER STREET", "CITY": "NEWARK", "STATE": "NJ", "ZIP": "07104", "TELEPHONE": "973-497-5751", "ALT_PHONE": null, "TYPE": "FEDERALLY QUALIFIED HEALTH CENTERS", "COUNTY": "ESSEX", "COUNTYFIPS": "34013", "ST_FIPS": "34", "COUNTRY": "US", "REGION": "NORTH EAST", "LATITUDE": 40.75652565, "LONGITUDE": -74.17907968, "STATE_ID": null, "NAICS_CODE": null, "OWNER": null, "TTL_STAFF": null, "BEDS": 9999999, "TRAUMA": null }, "geometry": { "type": "Point", "coordinates": [ -74.179077718666107, 40.756517409013981 ] } },
{ "type": "Feature", "properties": { "OBJECTID": 122, "NAME": "The Health Center at Central High School", "ADDRESS": "246 18TH AVE", "CITY": "NEWARK CITY", "STATE": "NJ", "ZIP": "07108", "TELEPHONE": null, "ALT_PHONE": null, "TYPE": "FEDERALLY QUALIFIED HEALTH CENTERS", "COUNTY": "ESSEX", "COUNTYFIPS": "34013", "ST_FIPS": "34", "COUNTRY": "US", "REGION": "NORTH EAST", "LATITUDE": 40.72947216, "LONGITUDE": -74.19254124, "STATE_ID": null, "NAICS_CODE": null, "OWNER": null, "TTL_STAFF": null, "BEDS": 9999999, "TRAUMA": null }, "geometry": { "type": "Point", "coordinates": [ -74.192539364124585, 40.729463944180296 ] } },
{ "type": "Feature", "properties": { "OBJECTID": 123, "NAME": "The Health Place at Quitman Street School", "ADDRESS": "21 QUITMAN STREET", "CITY": "NEWARK", "STATE": "NJ", "ZIP": "07103", "TELEPHONE": "973-424-4329", "ALT_PHONE": null, "TYPE": "FEDERALLY QUALIFIED HEALTH CENTERS", "COUNTY": "ESSEX", "COUNTYFIPS": "34013", "ST_FIPS": "34", "COUNTRY": "US", "REGION": "NORTH EAST", "LATITUDE": 40.73000918, "LONGITUDE": -74.18337227000001, "STATE_ID": null, "NAICS_CODE": null, "OWNER": null, "TTL_STAFF": null, "BEDS": 9999999, "TRAUMA": null }, "geometry": { "type": "Point", "coordinates": [ -74.183370398082005, 40.730000938422521 ] } },
{ "type": "Feature", "properties": { "OBJECTID": 124, "NAME": "The Mobile Medic", "ADDRESS": "1 WHITE HORSE CENTRE", "CITY": "HAMMONTON", "STATE": "NJ", "ZIP": "08037", "TELEPHONE": "800-486-0131", "ALT_PHONE": null, "TYPE": "FEDERALLY QUALIFIED HEALTH CENTERS", "COUNTY": "ATLANTIC", "COUNTYFIPS": "34001", "ST_FIPS": "34", "COUNTRY": "US", "REGION": "SOUTH", "LATITUDE": 39.61897292, "LONGITUDE": -74.77521418000001, "STATE_ID": null, "NAICS_CODE": null, "OWNER": null, "TTL_STAFF": null, "BEDS": 9999999, "TRAUMA": null }, "geometry": { "type": "Point", "coordinates": [ -74.775213312759504, 39.618967618736228 ] } },
{ "type": "Feature", "properties": { "OBJECTID": 125, "NAME": "The Rainbow Room - Dayton Street School", "ADDRESS": "226 DAYTON STREET", "CITY": "NEWARK", "STATE": "NJ", "ZIP": "07114", "TELEPHONE": "973-733-8781", "ALT_PHONE": null, "TYPE": "FEDERALLY QUALIFIED HEALTH CENTERS", "COUNTY": "ESSEX", "COUNTYFIPS": "34013", "ST_FIPS": "34", "COUNTRY": "US", "REGION": "NORTH EAST", "LATITUDE": 40.69479604, "LONGITUDE": -74.20330898, "STATE_ID": null, "NAICS_CODE": null, "OWNER": null, "TTL_STAFF": null, "BEDS": 9999999, "TRAUMA": null }, "geometry": { "type": "Point", "coordinates": [ -74.20330726918786, 40.69478781847797 ] } },
{ "type": "Feature", "properties": { "OBJECTID": 126, "NAME": "Vineland Medical and Dental Center", "ADDRESS": "319 LANDIS AVENUE", "CITY": "VINELAND", "STATE": "NJ", "ZIP": "08360", "TELEPHONE": "856-451-4700", "ALT_PHONE": null, "TYPE": "FEDERALLY QUALIFIED HEALTH CENTERS", "COUNTY": "CUMBERLAND", "COUNTYFIPS": "34011", "ST_FIPS": "34", "COUNTRY": "US", "REGION": "SOUTH", "LATITUDE": 39.48617676, "LONGITUDE": -75.02977361000001, "STATE_ID": null, "NAICS_CODE": null, "OWNER": null, "TTL_STAFF": null, "BEDS": 9999999, "TRAUMA": null }, "geometry": { "type": "Point", "coordinates": [ -75.029772254088329, 39.486172857920913 ] } },
{ "type": "Feature", "properties": { "OBJECTID": 127, "NAME": "Vineland Women's Health Center", "ADDRESS": "484 S. BREWSTER RD", "CITY": "VINELAND", "STATE": "NJ", "ZIP": "08360", "TELEPHONE": "856-451-4700", "ALT_PHONE": null, "TYPE": "FEDERALLY QUALIFIED HEALTH CENTERS", "COUNTY": "CUMBERLAND", "COUNTYFIPS": "34011", "ST_FIPS": "34", "COUNTRY": "US", "REGION": "SOUTH", "LATITUDE": 39.4768101, "LONGITUDE": -74.97711553000001, "STATE_ID": null, "NAICS_CODE": null, "OWNER": null, "TTL_STAFF": null, "BEDS": 9999999, "TRAUMA": null }, "geometry": { "type": "Point", "coordinates": [ -74.977114259408481, 39.476806211190997 ] } },
{ "type": "Feature", "properties": { "OBJECTID": 128, "NAME": "Visiting Nurse Association of Central Jersey Community Health Center", "ADDRESS": "1301 MAIN STREET", "CITY": "ASBURY PARK", "STATE": "NJ", "ZIP": "07712", "TELEPHONE": "732-774-6333", "ALT_PHONE": "732-776-3921", "TYPE": "FEDERALLY QUALIFIED HEALTH CENTERS", "COUNTY": "MONMOUTH", "COUNTYFIPS": "34025", "ST_FIPS": "34", "COUNTRY": "US", "REGION": "CENTRAL EAST", "LATITUDE": 40.2259778, "LONGITUDE": -74.01028079, "STATE_ID": null, "NAICS_CODE": null, "OWNER": null, "TTL_STAFF": null, "BEDS": 9999999, "TRAUMA": null }, "geometry": { "type": "Point", "coordinates": [ -74.010280239134971, 40.225969870674476 ] } },
{ "type": "Feature", "properties": { "OBJECTID": 129, "NAME": "Women and Children's Health Pavilion", "ADDRESS": "1125 ATLANTIC AVENUE", "CITY": "ATLANTIC CITY", "STATE": "NJ", "ZIP": "08401", "TELEPHONE": "609-348-0066", "ALT_PHONE": null, "TYPE": "FEDERALLY QUALIFIED HEALTH CENTERS", "COUNTY": "ATLANTIC", "COUNTYFIPS": "34001", "ST_FIPS": "34", "COUNTRY": "US", "REGION": "SOUTH", "LATITUDE": 39.36346556, "LONGITUDE": -74.42538953, "STATE_ID": null, "NAICS_CODE": null, "OWNER": null, "TTL_STAFF": null, "BEDS": 9999999, "TRAUMA": null }, "geometry": { "type": "Point", "coordinates": [ -74.425389716604812, 39.363461145730803 ] } },
{ "type": "Feature", "properties": { "OBJECTID": 130, "NAME": "Women's Wellness Center of Monmouth Family Health Center", "ADDRESS": "80 PAVILLION AVENUE", "CITY": "LONG BRANCH", "STATE": "NJ", "ZIP": "07740", "TELEPHONE": "732-963-0114", "ALT_PHONE": null, "TYPE": "FEDERALLY QUALIFIED HEALTH CENTERS", "COUNTY": "MONMOUTH", "COUNTYFIPS": "34025", "ST_FIPS": "34", "COUNTRY": "US", "REGION": "CENTRAL EAST", "LATITUDE": 40.29670423, "LONGITUDE": -73.9828795, "STATE_ID": null, "NAICS_CODE": null, "OWNER": null, "TTL_STAFF": null, "BEDS": 9999999, "TRAUMA": null }, "geometry": { "type": "Point", "coordinates": [ -73.982879065119761, 40.296696265757433 ] } },
{ "type": "Feature", "properties": { "OBJECTID": 131, "NAME": "Zufall Health Center", "ADDRESS": "18 W. BLACKWELL STREET", "CITY": "DOVER", "STATE": "NJ", "ZIP": "07801", "TELEPHONE": "973-328-9100", "ALT_PHONE": null, "TYPE": "FEDERALLY QUALIFIED HEALTH CENTERS", "COUNTY": "MORRIS", "COUNTYFIPS": "34027", "ST_FIPS": "34", "COUNTRY": "US", "REGION": "NORTH WEST", "LATITUDE": 40.883932, "LONGITUDE": -74.55966337, "STATE_ID": null, "NAICS_CODE": null, "OWNER": null, "TTL_STAFF": null, "BEDS": 9999999, "TRAUMA": null }, "geometry": { "type": "Point", "coordinates": [ -74.559661423191599, 40.883923971830583 ] } },
{ "type": "Feature", "properties": { "OBJECTID": 132, "NAME": "Zufall Health Center at Hackettstown", "ADDRESS": "653 WILLOW GROVE STREET", "CITY": "HACKETTSTOWN", "STATE": "NJ", "ZIP": "07840", "TELEPHONE": "908-452-5366", "ALT_PHONE": null, "TYPE": "FEDERALLY QUALIFIED HEALTH CENTERS", "COUNTY": "WARREN", "COUNTYFIPS": "34041", "ST_FIPS": "34", "COUNTRY": "US", "REGION": "NORTH WEST", "LATITUDE": 40.86175031, "LONGITUDE": -74.81592622, "STATE_ID": null, "NAICS_CODE": null, "OWNER": null, "TTL_STAFF": null, "BEDS": 9999999, "TRAUMA": null }, "geometry": { "type": "Point", "coordinates": [ -74.815924092608242, 40.861742283012561 ] } },
{ "type": "Feature", "properties": { "OBJECTID": 133, "NAME": "Zufall Health Center at Morristown", "ADDRESS": "2-4 ATNO AVENUE", "CITY": "MORRISTOWN", "STATE": "NJ", "ZIP": "07960", "TELEPHONE": "973-267-0002", "ALT_PHONE": null, "TYPE": "FEDERALLY QUALIFIED HEALTH CENTERS", "COUNTY": "MORRIS", "COUNTYFIPS": "34027", "ST_FIPS": "34", "COUNTRY": "US", "REGION": "NORTH WEST", "LATITUDE": 40.79887877, "LONGITUDE": -74.48517621000001, "STATE_ID": null, "NAICS_CODE": null, "OWNER": null, "TTL_STAFF": null, "BEDS": 9999999, "TRAUMA": null }, "geometry": { "type": "Point", "coordinates": [ -74.485174285573606, 40.798870765518885 ] } },
{ "type": "Feature", "properties": { "OBJECTID": 134, "NAME": "Ancora Psychiatric Hospital", "ADDRESS": "301 SPRING GARDEN ROAD", "CITY": "HAMMONTOWN", "STATE": "NJ", "ZIP": "08037", "TELEPHONE": "609-561-1700", "ALT_PHONE": null, "TYPE": "NON ACUTE CARE HOSPITALS", "COUNTY": "ATLANTIC", "COUNTYFIPS": "34001", "ST_FIPS": "34", "COUNTRY": "US", "REGION": "SOUTH", "LATITUDE": 39.68228096, "LONGITUDE": -74.86070736000001, "STATE_ID": null, "NAICS_CODE": null, "OWNER": null, "TTL_STAFF": null, "BEDS": 9999999, "TRAUMA": null }, "geometry": { "type": "Point", "coordinates": [ -74.860706287559964, 39.682275638000966 ] } },
{ "type": "Feature", "properties": { "OBJECTID": 135, "NAME": "Atlantic Rehabilitation Institute", "ADDRESS": "95 USHY 202", "CITY": "MORRISTOWN", "STATE": "NJ", "ZIP": "07960", "TELEPHONE": null, "ALT_PHONE": null, "TYPE": "NON ACUTE CARE HOSPITALS", "COUNTY": "MORRIS", "COUNTYFIPS": "34027", "ST_FIPS": "34", "COUNTRY": "US", "REGION": "NORTH WEST", "LATITUDE": 40.78880443, "LONGITUDE": -74.48986831000001, "STATE_ID": null, "NAICS_CODE": null, "OWNER": null, "TTL_STAFF": null, "BEDS": 9999999, "TRAUMA": null }, "geometry": { "type": "Point", "coordinates": [ -74.489866386086192, 40.788796435451424 ] } },
{ "type": "Feature", "properties": { "OBJECTID": 136, "NAME": "Bacharach Institute for Rehabilitation", "ADDRESS": "61 WEST JIMMIE LEEDS ROAD", "CITY": "POMONA", "STATE": "NJ", "ZIP": "08240", "TELEPHONE": "609-652-7000", "ALT_PHONE": null, "TYPE": "NON ACUTE CARE HOSPITALS", "COUNTY": "ATLANTIC", "COUNTYFIPS": "34001", "ST_FIPS": "34", "COUNTRY": "US", "REGION": "SOUTH", "LATITUDE": 39.47902896, "LONGITUDE": -74.54042603000001, "STATE_ID": null, "NAICS_CODE": null, "OWNER": null, "TTL_STAFF": null, "BEDS": 9999999, "TRAUMA": null }, "geometry": { "type": "Point", "coordinates": [ -74.540425866819248, 39.479023485519683 ] } },
{ "type": "Feature", "properties": { "OBJECTID": 137, "NAME": "Buttonwood Hospital of Burlington County", "ADDRESS": "600 PEMBERTON-BROWNS MILLS ROAD", "CITY": "MOUNT HOLLY", "STATE": "NJ", "ZIP": "08060", "TELEPHONE": "609-726-7000", "ALT_PHONE": null, "TYPE": "NON ACUTE CARE HOSPITALS", "COUNTY": "BURLINGTON", "COUNTYFIPS": "34005", "ST_FIPS": "34", "COUNTRY": "US", "REGION": "SOUTH", "LATITUDE": 39.96774209, "LONGITUDE": -74.6378086, "STATE_ID": null, "NAICS_CODE": null, "OWNER": null, "TTL_STAFF": null, "BEDS": 9999999, "TRAUMA": null }, "geometry": { "type": "Point", "coordinates": [ -74.63780765398316, 39.967735292639851 ] } },
{ "type": "Feature", "properties": { "OBJECTID": 138, "NAME": "Care One at Raritan Bay Medical Center", "ADDRESS": "530 NEW BRUNSWICK AVE", "CITY": "PERTH AMBOY", "STATE": "NJ", "ZIP": "08861", "TELEPHONE": null, "ALT_PHONE": null, "TYPE": "NON ACUTE CARE HOSPITALS", "COUNTY": "MIDDLESEX", "COUNTYFIPS": "34023", "ST_FIPS": "34", "COUNTRY": "US", "REGION": "CENTRAL EAST", "LATITUDE": 40.51917396, "LONGITUDE": -74.28092403, "STATE_ID": null, "NAICS_CODE": null, "OWNER": null, "TTL_STAFF": null, "BEDS": 9999999, "TRAUMA": null }, "geometry": { "type": "Point", "coordinates": [ -74.28092308317791, 40.519165511240772 ] } },
{ "type": "Feature", "properties": { "OBJECTID": 139, "NAME": "Care One at Trinitas", "ADDRESS": "225 WILLIAMSON ST", "CITY": "ELIZABETH", "STATE": "NJ", "ZIP": "07202", "TELEPHONE": null, "ALT_PHONE": null, "TYPE": "NON ACUTE CARE HOSPITALS", "COUNTY": "UNION", "COUNTYFIPS": "34039", "ST_FIPS": "34", "COUNTRY": "US", "REGION": "CENTRAL EAST", "LATITUDE": 40.65896196, "LONGITUDE": -74.21488903, "STATE_ID": null, "NAICS_CODE": null, "OWNER": null, "TTL_STAFF": null, "BEDS": 9999999, "TRAUMA": null }, "geometry": { "type": "Point", "coordinates": [ -74.214887491775841, 40.658953712460971 ] } },
{ "type": "Feature", "properties": { "OBJECTID": 140, "NAME": "Carrier Clinic", "ADDRESS": "252 ROUTE 601", "CITY": "BELLE MEAD", "STATE": "NJ", "ZIP": "08502", "TELEPHONE": "908-281-1000", "ALT_PHONE": null, "TYPE": "NON ACUTE CARE HOSPITALS", "COUNTY": "SOMERSET", "COUNTYFIPS": "34035", "ST_FIPS": "34", "COUNTRY": "US", "REGION": "CENTRAL WEST", "LATITUDE": 40.46871937, "LONGITUDE": -74.68317074, "STATE_ID": null, "NAICS_CODE": null, "OWNER": null, "TTL_STAFF": null, "BEDS": 9999999, "TRAUMA": null }, "geometry": { "type": "Point", "coordinates": [ -74.683168502624852, 40.468711151610805 ] } },
{ "type": "Feature", "properties": { "OBJECTID": 141, "NAME": "Catholic Community Services - Mount Carmel Guild", "ADDRESS": "58 FREEMAN STREET", "CITY": "NEWARK", "STATE": "NJ", "ZIP": "07105", "TELEPHONE": "973-596-4190", "ALT_PHONE": null, "TYPE": "NON ACUTE CARE HOSPITALS", "COUNTY": "ESSEX", "COUNTYFIPS": "34013", "ST_FIPS": "34", "COUNTRY": "US", "REGION": "NORTH EAST", "LATITUDE": 40.73156508, "LONGITUDE": -74.14419187, "STATE_ID": null, "NAICS_CODE": null, "OWNER": null, "TTL_STAFF": null, "BEDS": 9999999, "TRAUMA": null }, "geometry": { "type": "Point", "coordinates": [ -74.144190041829461, 40.731556726902049 ] } },
{ "type": "Feature", "properties": { "OBJECTID": 142, "NAME": "Children's Specialized Hospital - New Brunswick", "ADDRESS": "146 SOMERSET ST", "CITY": "NEW BRUNSWICK", "STATE": "NJ", "ZIP": "08901", "TELEPHONE": null, "ALT_PHONE": null, "TYPE": "NON ACUTE CARE HOSPITALS", "COUNTY": "MIDDLESEX", "COUNTYFIPS": "34023", "ST_FIPS": "34", "COUNTRY": "US", "REGION": "CENTRAL EAST", "LATITUDE": 40.4949291, "LONGITUDE": -74.45134711, "STATE_ID": null, "NAICS_CODE": null, "OWNER": null, "TTL_STAFF": null, "BEDS": 9999999, "TRAUMA": null }, "geometry": { "type": "Point", "coordinates": [ -74.451345261585303, 40.494920631012739 ] } },
{ "type": "Feature", "properties": { "OBJECTID": 143, "NAME": "Children's Specialized Hospital at Mountainside", "ADDRESS": "150 NEW PROVIDENCE ROAD", "CITY": "MOUNTAINSIDE", "STATE": "NJ", "ZIP": "07092", "TELEPHONE": "908-301-5534", "ALT_PHONE": null, "TYPE": "NON ACUTE CARE HOSPITALS", "COUNTY": "UNION", "COUNTYFIPS": "34039", "ST_FIPS": "34", "COUNTRY": "US", "REGION": "CENTRAL EAST", "LATITUDE": 40.66973724, "LONGITUDE": -74.35393456, "STATE_ID": null, "NAICS_CODE": null, "OWNER": null, "TTL_STAFF": null, "BEDS": 9999999, "TRAUMA": null }, "geometry": { "type": "Point", "coordinates": [ -74.35393279086459, 40.669729080938737 ] } },
{ "type": "Feature", "properties": { "OBJECTID": 144, "NAME": "Children's Specialized Hospital at Toms River", "ADDRESS": "94 STEVENS ROAD", "CITY": "TOMS RIVER", "STATE": "NJ", "ZIP": "08755", "TELEPHONE": "732-914-1100", "ALT_PHONE": "888-244-5373", "TYPE": "NON ACUTE CARE HOSPITALS", "COUNTY": "OCEAN", "COUNTYFIPS": "34029", "ST_FIPS": "34", "COUNTRY": "US", "REGION": "CENTRAL EAST", "LATITUDE": 40.0097293, "LONGITUDE": -74.2220536, "STATE_ID": null, "NAICS_CODE": null, "OWNER": null, "TTL_STAFF": null, "BEDS": 9999999, "TRAUMA": null }, "geometry": { "type": "Point", "coordinates": [ -74.222051487644762, 40.009721378179563 ] } },
{ "type": "Feature", "properties": { "OBJECTID": 145, "NAME": "Christian Healthcare Center - Ramapo Ridge Psychiatric Hospital", "ADDRESS": "301 SICOMAC AVENUE", "CITY": "WYCKOFF", "STATE": "NJ", "ZIP": "07481", "TELEPHONE": "201-848-5200", "ALT_PHONE": null, "TYPE": "NON ACUTE CARE HOSPITALS", "COUNTY": "BERGEN", "COUNTYFIPS": "34003", "ST_FIPS": "34", "COUNTRY": "US", "REGION": "NORTH EAST", "LATITUDE": 40.9813683, "LONGITUDE": -74.17176152, "STATE_ID": null, "NAICS_CODE": null, "OWNER": null, "TTL_STAFF": null, "BEDS": 9999999, "TRAUMA": null }, "geometry": { "type": "Point", "coordinates": [ -74.171759533839179, 40.981360164059645 ] } },
{ "type": "Feature", "properties": { "OBJECTID": 146, "NAME": "Columbus Hospital", "ADDRESS": "495 N 13TH ST", "CITY": "NEWARK", "STATE": "NJ", "ZIP": "07107", "TELEPHONE": "973-268-1400", "ALT_PHONE": "973-877-5000", "TYPE": "NON ACUTE CARE HOSPITALS", "COUNTY": "ESSEX", "COUNTYFIPS": "34013", "ST_FIPS": "34", "COUNTRY": "US", "REGION": "NORTH EAST", "LATITUDE": 40.7728662, "LONGITUDE": -74.18670752, "STATE_ID": null, "NAICS_CODE": null, "OWNER": null, "TTL_STAFF": null, "BEDS": 0, "TRAUMA": null }, "geometry": { "type": "Point", "coordinates": [ -74.186705550862044, 40.772857985917526 ] } },
{ "type": "Feature", "properties": { "OBJECTID": 147, "NAME": "Deborah Heart and Lung Center", "ADDRESS": "200 TRENTON ROAD", "CITY": "BROWNS MILLS", "STATE": "NJ", "ZIP": "08015", "TELEPHONE": "609-893-6611", "ALT_PHONE": null, "TYPE": "NON ACUTE CARE HOSPITALS", "COUNTY": "BURLINGTON", "COUNTYFIPS": "34005", "ST_FIPS": "34", "COUNTRY": "US", "REGION": "SOUTH", "LATITUDE": 39.97743609, "LONGITUDE": -74.58538259, "STATE_ID": null, "NAICS_CODE": null, "OWNER": null, "TTL_STAFF": null, "BEDS": 9999999, "TRAUMA": null }, "geometry": { "type": "Point", "coordinates": [ -74.585381724137235, 39.977429240178481 ] } },
{ "type": "Feature", "properties": { "OBJECTID": 148, "NAME": "East Mountain Hospital", "ADDRESS": "40 EAST MOUNTAIN ROAD", "CITY": "BELLE MEAD", "STATE": "NJ", "ZIP": "08502", "TELEPHONE": "908-281-1500", "ALT_PHONE": null, "TYPE": "NON ACUTE CARE HOSPITALS", "COUNTY": "SOMERSET", "COUNTYFIPS": "34035", "ST_FIPS": "34", "COUNTRY": "US", "REGION": "CENTRAL WEST", "LATITUDE": 40.46733918, "LONGITUDE": -74.68364765, "STATE_ID": null, "NAICS_CODE": null, "OWNER": null, "TTL_STAFF": null, "BEDS": 9999999, "TRAUMA": null }, "geometry": { "type": "Point", "coordinates": [ -74.683645406291703, 40.467330969814377 ] } },
{ "type": "Feature", "properties": { "OBJECTID": 149, "NAME": "Essex County Hospital Center", "ADDRESS": "204 GROVE AVENUE", "CITY": "CEDAR GROVE", "STATE": "NJ", "ZIP": "07009", "TELEPHONE": "973-571-2801", "ALT_PHONE": null, "TYPE": "NON ACUTE CARE HOSPITALS", "COUNTY": "ESSEX", "COUNTYFIPS": "34013", "ST_FIPS": "34", "COUNTRY": "US", "REGION": "NORTH EAST", "LATITUDE": 40.85170792, "LONGITUDE": -74.2340374, "STATE_ID": null, "NAICS_CODE": null, "OWNER": null, "TTL_STAFF": null, "BEDS": 9999999, "TRAUMA": null }, "geometry": { "type": "Point", "coordinates": [ -74.234035352499532, 40.851699853661195 ] } },
{ "type": "Feature", "properties": { "OBJECTID": 150, "NAME": "Greystone Park Psychiatric Hospital", "ADDRESS": "59 KOCH AVENUE", "CITY": "MORRISTOWN", "STATE": "NJ", "ZIP": "07950-4400", "TELEPHONE": "973-538-1800", "ALT_PHONE": null, "TYPE": "NON ACUTE CARE HOSPITALS", "COUNTY": "MERCER", "COUNTYFIPS": "34021", "ST_FIPS": "34", "COUNTRY": "US", "REGION": "CENTRAL WEST", "LATITUDE": 40.83829144, "LONGITUDE": -74.51024012000001, "STATE_ID": null, "NAICS_CODE": null, "OWNER": null, "TTL_STAFF": null, "BEDS": 9999999, "TRAUMA": null }, "geometry": { "type": "Point", "coordinates": [ -74.510238200353754, 40.838283427487042 ] } },
{ "type": "Feature", "properties": { "OBJECTID": 151, "NAME": "Hampton Behavioral Health Center", "ADDRESS": "650 RANCOCAS ROAD", "CITY": "WESTAMPTON TOWNSHIP", "STATE": "NJ", "ZIP": "08060", "TELEPHONE": "800-603-6767", "ALT_PHONE": "609-267-7000", "TYPE": "NON ACUTE CARE HOSPITALS", "COUNTY": "BURLINGTON", "COUNTYFIPS": "34005", "ST_FIPS": "34", "COUNTRY": "US", "REGION": "SOUTH", "LATITUDE": 40.00823409, "LONGITUDE": -74.84656067, "STATE_ID": null, "NAICS_CODE": null, "OWNER": null, "TTL_STAFF": null, "BEDS": 9999999, "TRAUMA": null }, "geometry": { "type": "Point", "coordinates": [ -74.846558528132888, 40.008226981218606 ] } },
{ "type": "Feature", "properties": { "OBJECTID": 152, "NAME": "HealthSouth Rehabilitation Hospital of Tinton Falls", "ADDRESS": "2 CENTER PLZ", "CITY": "TINTON FALLS", "STATE": "NJ", "ZIP": "07724", "TELEPHONE": "732-460-5320", "ALT_PHONE": "732-460-6741", "TYPE": "NON ACUTE CARE HOSPITALS", "COUNTY": "MONMOUTH", "COUNTYFIPS": "34025", "ST_FIPS": "34", "COUNTRY": "US", "REGION": "CENTRAL EAST", "LATITUDE": 40.2828733, "LONGITUDE": -74.07967805, "STATE_ID": null, "NAICS_CODE": null, "OWNER": null, "TTL_STAFF": null, "BEDS": 9999999, "TRAUMA": null }, "geometry": { "type": "Point", "coordinates": [ -74.079677179603308, 40.282865205836998 ] } },
{ "type": "Feature", "properties": { "OBJECTID": 153, "NAME": "HealthSouth Rehabilitation Hospital of Vineland", "ADDRESS": "1237 W SHERMAN AVE", "CITY": "VINELAND", "STATE": "NJ", "ZIP": "08360", "TELEPHONE": null, "ALT_PHONE": null, "TYPE": "NON ACUTE CARE HOSPITALS", "COUNTY": "CUMBERLAND", "COUNTYFIPS": "34011", "ST_FIPS": "34", "COUNTRY": "US", "REGION": "SOUTH", "LATITUDE": 39.44521889, "LONGITUDE": -75.0526009, "STATE_ID": null, "NAICS_CODE": null, "OWNER": null, "TTL_STAFF": null, "BEDS": 9999999, "TRAUMA": null }, "geometry": { "type": "Point", "coordinates": [ -75.052599117161733, 39.445214945640359 ] } },
{ "type": "Feature", "properties": { "OBJECTID": 154, "NAME": "Healthsouth Rehabilitation Hospital of Toms River", "ADDRESS": "14 HOSPITAL DRIVE", "CITY": "TOMS RIVER", "STATE": "NJ", "ZIP": "08755", "TELEPHONE": "732-244-3100", "ALT_PHONE": null, "TYPE": "NON ACUTE CARE HOSPITALS", "COUNTY": "OCEAN", "COUNTYFIPS": "34029", "ST_FIPS": "34", "COUNTRY": "US", "REGION": "CENTRAL EAST", "LATITUDE": 39.9623001, "LONGITUDE": -74.21751285000001, "STATE_ID": null, "NAICS_CODE": null, "OWNER": null, "TTL_STAFF": null, "BEDS": 9999999, "TRAUMA": null }, "geometry": { "type": "Point", "coordinates": [ -74.217511126143123, 39.962292504553801 ] } },
{ "type": "Feature", "properties": { "OBJECTID": 155, "NAME": "Kessler Institute for Rehabilitation - East Facility", "ADDRESS": "240 CENTRAL AVENUE", "CITY": "EAST ORANGE", "STATE": "NJ", "ZIP": "07018", "TELEPHONE": "973-414-4700", "ALT_PHONE": null, "TYPE": "NON ACUTE CARE HOSPITALS", "COUNTY": "ESSEX", "COUNTYFIPS": "34013", "ST_FIPS": "34", "COUNTRY": "US", "REGION": "NORTH EAST", "LATITUDE": 40.75356447, "LONGITUDE": -74.21187905, "STATE_ID": null, "NAICS_CODE": null, "OWNER": null, "TTL_STAFF": null, "BEDS": 9999999, "TRAUMA": null }, "geometry": { "type": "Point", "coordinates": [ -74.211877047181247, 40.753556330190847 ] } },
{ "type": "Feature", "properties": { "OBJECTID": 156, "NAME": "Kessler Institute for Rehabilitation - North Facility", "ADDRESS": "300 MARKET STREET", "CITY": "SADDLE BROOK", "STATE": "NJ", "ZIP": "07663", "TELEPHONE": "201-587-8500", "ALT_PHONE": null, "TYPE": "NON ACUTE CARE HOSPITALS", "COUNTY": "BERGEN", "COUNTYFIPS": "34003", "ST_FIPS": "34", "COUNTRY": "US", "REGION": "NORTH EAST", "LATITUDE": 40.89610103, "LONGITUDE": -74.09267227, "STATE_ID": null, "NAICS_CODE": null, "OWNER": null, "TTL_STAFF": null, "BEDS": 9999999, "TRAUMA": null }, "geometry": { "type": "Point", "coordinates": [ -74.092670405260151, 40.896092687791665 ] } },
{ "type": "Feature", "properties": { "OBJECTID": 157, "NAME": "Kessler Institute for Rehabilitation - Welkind Facility", "ADDRESS": "201 PLEASANT HILL ROAD", "CITY": "CHESTER", "STATE": "NJ", "ZIP": "07930", "TELEPHONE": "973-252-6300", "ALT_PHONE": "973-252-6367", "TYPE": "NON ACUTE CARE HOSPITALS", "COUNTY": "MORRIS", "COUNTYFIPS": "34027", "ST_FIPS": "34", "COUNTRY": "US", "REGION": "NORTH WEST", "LATITUDE": 40.81942575, "LONGITUDE": -74.68560339, "STATE_ID": null, "NAICS_CODE": null, "OWNER": null, "TTL_STAFF": null, "BEDS": 9999999, "TRAUMA": null }, "geometry": { "type": "Point", "coordinates": [ -74.68560130898625, 40.819417761034948 ] } },
{ "type": "Feature", "properties": { "OBJECTID": 158, "NAME": "Kessler Institute for Rehabilitation - West Facility", "ADDRESS": "1199 PLEASANT VALLEY WAY", "CITY": "WEST ORANGE", "STATE": "NJ", "ZIP": "07052", "TELEPHONE": "973-731-3600", "ALT_PHONE": null, "TYPE": "NON ACUTE CARE HOSPITALS", "COUNTY": "ESSEX", "COUNTYFIPS": "34013", "ST_FIPS": "34", "COUNTRY": "US", "REGION": "NORTH EAST", "LATITUDE": 40.78571826, "LONGITUDE": -74.27652554, "STATE_ID": null, "NAICS_CODE": null, "OWNER": null, "TTL_STAFF": null, "BEDS": 9999999, "TRAUMA": null }, "geometry": { "type": "Point", "coordinates": [ -74.276523498541209, 40.78571024407389 ] } },
{ "type": "Feature", "properties": { "OBJECTID": 159, "NAME": "Kindred Hospital New Jersey - Morris County", "ADDRESS": "400 USHY 46", "CITY": "DOVER", "STATE": "NJ", "ZIP": "07801", "TELEPHONE": null, "ALT_PHONE": null, "TYPE": "NON ACUTE CARE HOSPITALS", "COUNTY": "MORRIS", "COUNTYFIPS": "34027", "ST_FIPS": "34", "COUNTRY": "US", "REGION": "NORTH WEST", "LATITUDE": 40.88518096, "LONGITUDE": -74.57640703, "STATE_ID": null, "NAICS_CODE": null, "OWNER": null, "TTL_STAFF": null, "BEDS": 9999999, "TRAUMA": null }, "geometry": { "type": "Point", "coordinates": [ -74.57640507397177, 40.885172935712099 ] } },
{ "type": "Feature", "properties": { "OBJECTID": 160, "NAME": "Kindred Hospital New Jersey - Rahway", "ADDRESS": "865 STONE ST", "CITY": "RAHWAY", "STATE": "NJ", "ZIP": "07065", "TELEPHONE": null, "ALT_PHONE": null, "TYPE": "NON ACUTE CARE HOSPITALS", "COUNTY": "UNION", "COUNTYFIPS": "34039", "ST_FIPS": "34", "COUNTRY": "US", "REGION": "CENTRAL EAST", "LATITUDE": 40.61313596, "LONGITUDE": -74.29127203, "STATE_ID": null, "NAICS_CODE": null, "OWNER": null, "TTL_STAFF": null, "BEDS": 9999999, "TRAUMA": null }, "geometry": { "type": "Point", "coordinates": [ -74.291270610447071, 40.613127689637139 ] } },
{ "type": "Feature", "properties": { "OBJECTID": 161, "NAME": "Kindred Hospital New Jersey - Wayne", "ADDRESS": "224 HAMBURG TPKE", "CITY": "WAYNE", "STATE": "NJ", "ZIP": "07470", "TELEPHONE": null, "ALT_PHONE": null, "TYPE": "NON ACUTE CARE HOSPITALS", "COUNTY": "PASSAIC", "COUNTYFIPS": "34031", "ST_FIPS": "34", "COUNTRY": "US", "REGION": "NORTH WEST", "LATITUDE": 40.94688196, "LONGITUDE": -74.20313203000001, "STATE_ID": null, "NAICS_CODE": null, "OWNER": null, "TTL_STAFF": null, "BEDS": 9999999, "TRAUMA": null }, "geometry": { "type": "Point", "coordinates": [ -74.203130009635842, 40.946873848634432 ] } },
{ "type": "Feature", "properties": { "OBJECTID": 162, "NAME": "Lourdes Specialty Hospital of Southern New Jersey", "ADDRESS": "218 SUNSET RD", "CITY": "WILLINGBORO", "STATE": "NJ", "ZIP": "08046", "TELEPHONE": null, "ALT_PHONE": null, "TYPE": "NON ACUTE CARE HOSPITALS", "COUNTY": "BURLINGTON", "COUNTYFIPS": "34005", "ST_FIPS": "34", "COUNTRY": "US", "REGION": "SOUTH", "LATITUDE": 40.04654396, "LONGITUDE": -74.88084903, "STATE_ID": null, "NAICS_CODE": null, "OWNER": null, "TTL_STAFF": null, "BEDS": 9999999, "TRAUMA": null }, "geometry": { "type": "Point", "coordinates": [ -74.880846616690064, 40.046536706353216 ] } },
{ "type": "Feature", "properties": { "OBJECTID": 163, "NAME": "Marlton Rehabilitation Hospital", "ADDRESS": "92 BRICK ROAD", "CITY": "MARLTON", "STATE": "NJ", "ZIP": "08053", "TELEPHONE": "856-988-8778", "ALT_PHONE": "800-988-9828", "TYPE": "NON ACUTE CARE HOSPITALS", "COUNTY": "BURLINGTON", "COUNTYFIPS": "34005", "ST_FIPS": "34", "COUNTRY": "US", "REGION": "SOUTH", "LATITUDE": 39.88149896, "LONGITUDE": -74.91851203, "STATE_ID": null, "NAICS_CODE": null, "OWNER": null, "TTL_STAFF": null, "BEDS": 9999999, "TRAUMA": null }, "geometry": { "type": "Point", "coordinates": [ -74.918509974342683, 39.881492501733213 ] } },
{ "type": "Feature", "properties": { "OBJECTID": 164, "NAME": "Meadowview Psychiatric Hospital", "ADDRESS": "595 COUNTY AVENUE", "CITY": "SECAUCUS", "STATE": "NJ", "ZIP": "07094", "TELEPHONE": "201-207-3695", "ALT_PHONE": null, "TYPE": "NON ACUTE CARE HOSPITALS", "COUNTY": "HUDSON", "COUNTYFIPS": "34017", "ST_FIPS": "34", "COUNTRY": "US", "REGION": "NORTH EAST", "LATITUDE": 40.78304906, "LONGITUDE": -74.05860422000001, "STATE_ID": null, "NAICS_CODE": null, "OWNER": null, "TTL_STAFF": null, "BEDS": 9999999, "TRAUMA": null }, "geometry": { "type": "Point", "coordinates": [ -74.058602419424332, 40.783040479051586 ] } },
{ "type": "Feature", "properties": { "OBJECTID": 165, "NAME": "Morristown Memorial Hospital - Mt. Kemble Division", "ADDRESS": "95 MOUNT KIMBLE AVENUE", "CITY": "MORRISTOWN", "STATE": "NJ", "ZIP": "07962", "TELEPHONE": "973-971-5450", "ALT_PHONE": null, "TYPE": "NON ACUTE CARE HOSPITALS", "COUNTY": "MORRIS", "COUNTYFIPS": "34027", "ST_FIPS": "34", "COUNTRY": "US", "REGION": "NORTH WEST", "LATITUDE": 40.78970125, "LONGITUDE": -74.48947461, "STATE_ID": null, "NAICS_CODE": null, "OWNER": null, "TTL_STAFF": null, "BEDS": 9999999, "TRAUMA": null }, "geometry": { "type": "Point", "coordinates": [ -74.489472687764518, 40.789693254646529 ] } },
{ "type": "Feature", "properties": { "OBJECTID": 166, "NAME": "Northbrook Behavioral Health Hospital", "ADDRESS": "425 WOODBURY-TURNERSVILLE ROAD", "CITY": "BLACKWOOD", "STATE": "NJ", "ZIP": "08012", "TELEPHONE": "856-374-6600", "ALT_PHONE": null, "TYPE": "NON ACUTE CARE HOSPITALS", "COUNTY": "CAMDEN", "COUNTYFIPS": "34007", "ST_FIPS": "34", "COUNTRY": "US", "REGION": "SOUTH", "LATITUDE": 39.78941416, "LONGITUDE": -75.07385198, "STATE_ID": null, "NAICS_CODE": null, "OWNER": null, "TTL_STAFF": null, "BEDS": 9999999, "TRAUMA": null }, "geometry": { "type": "Point", "coordinates": [ -75.073849387150446, 39.789408076620717 ] } },
{ "type": "Feature", "properties": { "OBJECTID": 167, "NAME": "Princeton House Behavioral Health", "ADDRESS": "905 HERRONTOWN ROAD", "CITY": "PRINCETON", "STATE": "NJ", "ZIP": "08540", "TELEPHONE": "609-497-3300", "ALT_PHONE": "800-242-2500", "TYPE": "NON ACUTE CARE HOSPITALS", "COUNTY": "MERCER", "COUNTYFIPS": "34021", "ST_FIPS": "34", "COUNTRY": "US", "REGION": "CENTRAL WEST", "LATITUDE": 40.38857565, "LONGITUDE": -74.6534592, "STATE_ID": null, "NAICS_CODE": null, "OWNER": null, "TTL_STAFF": null, "BEDS": 9999999, "TRAUMA": null }, "geometry": { "type": "Point", "coordinates": [ -74.65345694278939, 40.388567495902599 ] } },
{ "type": "Feature", "properties": { "OBJECTID": 168, "NAME": "Ramapo Ridge Psychiatric Hospital", "ADDRESS": "301 CEDAR HILL AVE", "CITY": "WYCKOFF", "STATE": "NJ", "ZIP": "07481", "TELEPHONE": null, "ALT_PHONE": null, "TYPE": "NON ACUTE CARE HOSPITALS", "COUNTY": "BERGEN", "COUNTYFIPS": "34003", "ST_FIPS": "34", "COUNTRY": "US", "REGION": "NORTH EAST", "LATITUDE": 40.99733426, "LONGITUDE": -74.15534106, "STATE_ID": null, "NAICS_CODE": null, "OWNER": null, "TTL_STAFF": null, "BEDS": 9999999, "TRAUMA": null }, "geometry": { "type": "Point", "coordinates": [ -74.155339096570358, 40.997326115881414 ] } },
{ "type": "Feature", "properties": { "OBJECTID": 169, "NAME": "Rehabilitation Hospital of South Jersey", "ADDRESS": "1237 WEST SHERMAN AVENUE", "CITY": "VINELAND", "STATE": "NJ", "ZIP": "08360", "TELEPHONE": "856-696-7100", "ALT_PHONE": null, "TYPE": "NON ACUTE CARE HOSPITALS", "COUNTY": "CUMBERLAND", "COUNTYFIPS": "34011", "ST_FIPS": "34", "COUNTRY": "US", "REGION": "SOUTH", "LATITUDE": 39.44512194, "LONGITUDE": -75.05259854000001, "STATE_ID": null, "NAICS_CODE": null, "OWNER": null, "TTL_STAFF": null, "BEDS": 9999999, "TRAUMA": null }, "geometry": { "type": "Point", "coordinates": [ -75.052596750416498, 39.445117994373234 ] } },
{ "type": "Feature", "properties": { "OBJECTID": 170, "NAME": "Runnells Specialized Hospital of Union County", "ADDRESS": "40 WATCHUNG WAY", "CITY": "BERKELEY HEIGHTS", "STATE": "NJ", "ZIP": "07922", "TELEPHONE": "908-771-5700", "ALT_PHONE": null, "TYPE": "NON ACUTE CARE HOSPITALS", "COUNTY": "UNION", "COUNTYFIPS": "34039", "ST_FIPS": "34", "COUNTRY": "US", "REGION": "CENTRAL EAST", "LATITUDE": 40.66517823, "LONGITUDE": -74.42162758000001, "STATE_ID": null, "NAICS_CODE": null, "OWNER": null, "TTL_STAFF": null, "BEDS": 9999999, "TRAUMA": null }, "geometry": { "type": "Point", "coordinates": [ -74.421625714946032, 40.665170076274698 ] } },
{ "type": "Feature", "properties": { "OBJECTID": 171, "NAME": "Saint Barnabas Behavioral Health Center, Inc.", "ADDRESS": "1691 US HIGHWAY 9", "CITY": "TOMS RIVER", "STATE": "NJ", "ZIP": "08754", "TELEPHONE": "732-914-1688", "ALT_PHONE": null, "TYPE": "NON ACUTE CARE HOSPITALS", "COUNTY": "OCEAN", "COUNTYFIPS": "34029", "ST_FIPS": "34", "COUNTRY": "US", "REGION": "CENTRAL EAST", "LATITUDE": 40.01196911, "LONGITUDE": -74.21461247000001, "STATE_ID": null, "NAICS_CODE": null, "OWNER": null, "TTL_STAFF": null, "BEDS": 9999999, "TRAUMA": null }, "geometry": { "type": "Point", "coordinates": [ -74.214610367832307, 40.011961179122892 ] } },
{ "type": "Feature", "properties": { "OBJECTID": 172, "NAME": "Saint Clare's Hospital/Boonton", "ADDRESS": "130 POWERVILLE ROAD", "CITY": "BOONTON TOWNSHIP", "STATE": "NJ", "ZIP": "07005", "TELEPHONE": "973-316-1800", "ALT_PHONE": "973-316-1808", "TYPE": "NON ACUTE CARE HOSPITALS", "COUNTY": "MORRIS", "COUNTYFIPS": "34027", "ST_FIPS": "34", "COUNTRY": "US", "REGION": "NORTH WEST", "LATITUDE": 40.90995628, "LONGITUDE": -74.4258446, "STATE_ID": null, "NAICS_CODE": null, "OWNER": null, "TTL_STAFF": null, "BEDS": 9999999, "TRAUMA": null }, "geometry": { "type": "Point", "coordinates": [ -74.4258426440813, 40.909948236969321 ] } },
{ "type": "Feature", "properties": { "OBJECTID": 173, "NAME": "Select Specialty Hospital Northeast New Jersey", "ADDRESS": "96 PARKWAY", "CITY": "ROCHELLE PARK", "STATE": "NJ", "ZIP": "07662", "TELEPHONE": null, "ALT_PHONE": null, "TYPE": "NON ACUTE CARE HOSPITALS", "COUNTY": "BERGEN", "COUNTYFIPS": "34003", "ST_FIPS": "34", "COUNTRY": "US", "REGION": "NORTH EAST", "LATITUDE": 40.89786064, "LONGITUDE": -74.07402023, "STATE_ID": null, "NAICS_CODE": null, "OWNER": null, "TTL_STAFF": null, "BEDS": 9999999, "TRAUMA": null }, "geometry": { "type": "Point", "coordinates": [ -74.07401839055612, 40.897852269242051 ] } },
{ "type": "Feature", "properties": { "OBJECTID": 174, "NAME": "Senator Garrett W. Hagedorn Psychiatric Hospital", "ADDRESS": "200 SANATORIUM ROAD", "CITY": "GLEN GARDNER", "STATE": "NJ", "ZIP": "08826", "TELEPHONE": null, "ALT_PHONE": null, "TYPE": "NON ACUTE CARE HOSPITALS", "COUNTY": "HUNTERDON", "COUNTYFIPS": "34019", "ST_FIPS": "34", "COUNTRY": "US", "REGION": "CENTRAL WEST", "LATITUDE": 40.69289577, "LONGITUDE": -74.91910825, "STATE_ID": null, "NAICS_CODE": null, "OWNER": null, "TTL_STAFF": null, "BEDS": 9999999, "TRAUMA": null }, "geometry": { "type": "Point", "coordinates": [ -74.91910583970413, 40.692887683434684 ] } },
{ "type": "Feature", "properties": { "OBJECTID": 175, "NAME": "Shore Rehabilitation Institute", "ADDRESS": "425 JACK MARTIN BLVD", "CITY": "BRICK", "STATE": "NJ", "ZIP": "08724", "TELEPHONE": "732-295-6500", "ALT_PHONE": "732-836-4500", "TYPE": "NON ACUTE CARE HOSPITALS", "COUNTY": "OCEAN", "COUNTYFIPS": "34029", "ST_FIPS": "34", "COUNTRY": "US", "REGION": "CENTRAL EAST", "LATITUDE": 40.07724372, "LONGITUDE": -74.13113559, "STATE_ID": null, "NAICS_CODE": null, "OWNER": null, "TTL_STAFF": null, "BEDS": 9999999, "TRAUMA": null }, "geometry": { "type": "Point", "coordinates": [ -74.131133730583272, 40.077235672312135 ] } },
{ "type": "Feature", "properties": { "OBJECTID": 176, "NAME": "Specialty Hospital of Central Jersey", "ADDRESS": "600 USHY 9", "CITY": "LAKEWOOD", "STATE": "NJ", "ZIP": "08701", "TELEPHONE": null, "ALT_PHONE": null, "TYPE": "NON ACUTE CARE HOSPITALS", "COUNTY": "OCEAN", "COUNTYFIPS": "34029", "ST_FIPS": "34", "COUNTRY": "US", "REGION": "CENTRAL EAST", "LATITUDE": 40.07322496, "LONGITUDE": -74.21851703, "STATE_ID": null, "NAICS_CODE": null, "OWNER": null, "TTL_STAFF": null, "BEDS": 9999999, "TRAUMA": null }, "geometry": { "type": "Point", "coordinates": [ -74.218514994703042, 40.073216915478461 ] } },
{ "type": "Feature", "properties": { "OBJECTID": 177, "NAME": "St. Lawrence Rehabilitation Center", "ADDRESS": "2381 LAWRENCEVILLE ROAD", "CITY": "LAWRENCEVILLE", "STATE": "NJ", "ZIP": "08648", "TELEPHONE": "609-896-9500", "ALT_PHONE": null, "TYPE": "NON ACUTE CARE HOSPITALS", "COUNTY": "MERCER", "COUNTYFIPS": "34021", "ST_FIPS": "34", "COUNTRY": "US", "REGION": "CENTRAL WEST", "LATITUDE": 40.28843291, "LONGITUDE": -74.73442844, "STATE_ID": null, "NAICS_CODE": null, "OWNER": null, "TTL_STAFF": null, "BEDS": 9999999, "TRAUMA": null }, "geometry": { "type": "Point", "coordinates": [ -74.73442603178772, 40.288424958483738 ] } },
{ "type": "Feature", "properties": { "OBJECTID": 178, "NAME": "Summit Oaks Hospital", "ADDRESS": "19 PROSPECT STREET", "CITY": "SUMMIT", "STATE": "NJ", "ZIP": "07901", "TELEPHONE": "908-522-7000", "ALT_PHONE": "800-753-5223", "TYPE": "NON ACUTE CARE HOSPITALS", "COUNTY": "UNION", "COUNTYFIPS": "34039", "ST_FIPS": "34", "COUNTRY": "US", "REGION": "CENTRAL EAST", "LATITUDE": 40.71385736, "LONGITUDE": -74.36290196, "STATE_ID": null, "NAICS_CODE": null, "OWNER": null, "TTL_STAFF": null, "BEDS": 9999999, "TRAUMA": null }, "geometry": { "type": "Point", "coordinates": [ -74.362900067217907, 40.713849294399708 ] } },
{ "type": "Feature", "properties": { "OBJECTID": 179, "NAME": "The Matheny School and Hospital", "ADDRESS": "HIGHLAND AVE   ST", "CITY": "PEAPACK", "STATE": "NJ", "ZIP": "07934", "TELEPHONE": "908-234-0011", "ALT_PHONE": null, "TYPE": "NON ACUTE CARE HOSPITALS", "COUNTY": "SOMERSET", "COUNTYFIPS": "34035", "ST_FIPS": "34", "COUNTRY": "US", "REGION": "CENTRAL WEST", "LATITUDE": 40.7126316, "LONGITUDE": -74.64068108, "STATE_ID": null, "NAICS_CODE": null, "OWNER": null, "TTL_STAFF": null, "BEDS": 9999999, "TRAUMA": null }, "geometry": { "type": "Point", "coordinates": [ -74.640678982370417, 40.712623574740817 ] } },
{ "type": "Feature", "properties": { "OBJECTID": 180, "NAME": "The Rehabilitation Hospital of Tinton Falls", "ADDRESS": "2 CENTRE ST", "CITY": "TINTON FALLS", "STATE": "NJ", "ZIP": "07724", "TELEPHONE": "732-460-5320", "ALT_PHONE": null, "TYPE": "NON ACUTE CARE HOSPITALS", "COUNTY": "MONMOUTH", "COUNTYFIPS": "34025", "ST_FIPS": "34", "COUNTRY": "US", "REGION": "CENTRAL EAST", "LATITUDE": 40.28281335, "LONGITUDE": -74.07966842, "STATE_ID": null, "NAICS_CODE": null, "OWNER": null, "TTL_STAFF": null, "BEDS": 9999999, "TRAUMA": null }, "geometry": { "type": "Point", "coordinates": [ -74.07966754420174, 40.282805254375177 ] } },
{ "type": "Feature", "properties": { "OBJECTID": 181, "NAME": "Trenton Psychiatric Hospital", "ADDRESS": "101 SULLIVAN WAY", "CITY": "TRENTON", "STATE": "NJ", "ZIP": "08601", "TELEPHONE": "609-633-1500", "ALT_PHONE": null, "TYPE": "NON ACUTE CARE HOSPITALS", "COUNTY": "MERCER", "COUNTYFIPS": "34021", "ST_FIPS": "34", "COUNTRY": "US", "REGION": "CENTRAL WEST", "LATITUDE": 40.24357862, "LONGITUDE": -74.80543792, "STATE_ID": null, "NAICS_CODE": null, "OWNER": null, "TTL_STAFF": null, "BEDS": 9999999, "TRAUMA": null }, "geometry": { "type": "Point", "coordinates": [ -74.805435382523314, 40.243570771813204 ] } },
{ "type": "Feature", "properties": { "OBJECTID": 182, "NAME": "University Behavioral Healthcare", "ADDRESS": "671 HOES LANE", "CITY": "PISCATAWAY", "STATE": "NJ", "ZIP": "08854", "TELEPHONE": "609-969-5300", "ALT_PHONE": null, "TYPE": "NON ACUTE CARE HOSPITALS", "COUNTY": "MIDDLESEX", "COUNTYFIPS": "34023", "ST_FIPS": "34", "COUNTRY": "US", "REGION": "CENTRAL EAST", "LATITUDE": 40.5248662, "LONGITUDE": -74.46938859, "STATE_ID": null, "NAICS_CODE": null, "OWNER": null, "TTL_STAFF": null, "BEDS": 9999999, "TRAUMA": null }, "geometry": { "type": "Point", "coordinates": [ -74.469386636140982, 40.524857782769701 ] } },
{ "type": "Feature", "properties": { "OBJECTID": 183, "NAME": "Weisman Children's Rehabilitation Hospital", "ADDRESS": "92 BRICK ROAD", "CITY": "MARLTON", "STATE": "NJ", "ZIP": "08053", "TELEPHONE": "609-489-4520", "ALT_PHONE": "877-543-8774", "TYPE": "NON ACUTE CARE HOSPITALS", "COUNTY": "BURLINGTON", "COUNTYFIPS": "34005", "ST_FIPS": "34", "COUNTRY": "US", "REGION": "SOUTH", "LATITUDE": 39.88268584, "LONGITUDE": -74.91812513000001, "STATE_ID": null, "NAICS_CODE": null, "OWNER": null, "TTL_STAFF": null, "BEDS": 9999999, "TRAUMA": null }, "geometry": { "type": "Point", "coordinates": [ -74.918123069167635, 39.882679377969957 ] } },
{ "type": "Feature", "properties": { "OBJECTID": 184, "NAME": "Horizon Health Center", "ADDRESS": "115 CHRISTOPHER COLUMBUS DR", "CITY": "Jersey City", "STATE": "NJ", "ZIP": "07302", "TELEPHONE": "201-451-6300", "ALT_PHONE": "201-710-2201", "TYPE": "FEDERALLY QUALIFIED HEALTH CENTERS", "COUNTY": "HUDSON", "COUNTYFIPS": "34017", "ST_FIPS": "34", "COUNTRY": "US", "REGION": "NORTH EAST", "LATITUDE": 40.71965926, "LONGITUDE": -74.04395533, "STATE_ID": null, "NAICS_CODE": null, "OWNER": null, "TTL_STAFF": null, "BEDS": 9999999, "TRAUMA": null }, "geometry": { "type": "Point", "coordinates": [ -74.04395364565967, 40.719650626846366 ] } },
{ "type": "Feature", "properties": { "OBJECTID": 185, "NAME": "Horizon Health Center - Mobile Unit", "ADDRESS": "714 BERGEN AVE", "CITY": "JERSEY CITY", "STATE": "NJ", "ZIP": "07306", "TELEPHONE": "201-451-6300", "ALT_PHONE": "201-710-2000", "TYPE": "FEDERALLY QUALIFIED HEALTH CENTERS", "COUNTY": "HUDSON", "COUNTYFIPS": "34017", "ST_FIPS": "34", "COUNTRY": "US", "REGION": "NORTH EAST", "LATITUDE": 40.72428482, "LONGITUDE": -74.0696313, "STATE_ID": null, "NAICS_CODE": null, "OWNER": null, "TTL_STAFF": null, "BEDS": 9999999, "TRAUMA": null }, "geometry": { "type": "Point", "coordinates": [ -74.069629578565312, 40.724276256971777 ] } },
{ "type": "Feature", "properties": { "OBJECTID": 186, "NAME": "Irvington Community Health Center", "ADDRESS": "1150 SPRINGFIELD AVENUE", "CITY": "IRVINGTON", "STATE": "NJ", "ZIP": "07111", "TELEPHONE": "973-399-6292", "ALT_PHONE": null, "TYPE": "FEDERALLY QUALIFIED HEALTH CENTERS", "COUNTY": "ESSEX", "COUNTYFIPS": "34013", "ST_FIPS": "34", "COUNTRY": "US", "REGION": "NORTH EAST", "LATITUDE": 40.72546253, "LONGITUDE": -74.23620199, "STATE_ID": null, "NAICS_CODE": null, "OWNER": null, "TTL_STAFF": null, "BEDS": 9999999, "TRAUMA": null }, "geometry": { "type": "Point", "coordinates": [ -74.236200088432298, 40.725454427446948 ] } },
{ "type": "Feature", "properties": { "OBJECTID": 187, "NAME": "Jewish Renaissance Foundation-Community Action Agency", "ADDRESS": "149 KEARNY AVE", "CITY": "PERTH AMBOY", "STATE": "NJ", "ZIP": "08861", "TELEPHONE": "732-324-2114X124", "ALT_PHONE": null, "TYPE": "FEDERALLY QUALIFIED HEALTH CENTERS", "COUNTY": "MIDDLESEX", "COUNTYFIPS": "34023", "ST_FIPS": "34", "COUNTRY": "US", "REGION": "CENTRAL EAST", "LATITUDE": 40.50346575, "LONGITUDE": -74.26916929, "STATE_ID": null, "NAICS_CODE": null, "OWNER": null, "TTL_STAFF": null, "BEDS": 9999999, "TRAUMA": null }, "geometry": { "type": "Point", "coordinates": [ -74.26916848258476, 40.503457273173836 ] } },
{ "type": "Feature", "properties": { "OBJECTID": 188, "NAME": "Jewish Renaissance Medical Center", "ADDRESS": "275A  HOBART STREET", "CITY": "PERTH AMBOY", "STATE": "NJ", "ZIP": "08861", "TELEPHONE": "732-376-9333", "ALT_PHONE": "732-376-6655", "TYPE": "FEDERALLY QUALIFIED HEALTH CENTERS", "COUNTY": "MIDDLESEX", "COUNTYFIPS": "34023", "ST_FIPS": "34", "COUNTRY": "US", "REGION": "CENTRAL EAST", "LATITUDE": 40.5084906, "LONGITUDE": -74.26958258000001, "STATE_ID": null, "NAICS_CODE": null, "OWNER": null, "TTL_STAFF": null, "BEDS": 9999999, "TRAUMA": null }, "geometry": { "type": "Point", "coordinates": [ -74.269581745786709, 40.508482129562793 ] } },
{ "type": "Feature", "properties": { "OBJECTID": 189, "NAME": "Jewish Renaissance Medical Center Dental/Medical Mobile Van", "ADDRESS": "275 HOBART STREET", "CITY": "PERTH AMBOY", "STATE": "NJ", "ZIP": "08861", "TELEPHONE": "732-376-6632", "ALT_PHONE": null, "TYPE": "FEDERALLY QUALIFIED HEALTH CENTERS", "COUNTY": "MIDDLESEX", "COUNTYFIPS": "34023", "ST_FIPS": "34", "COUNTRY": "US", "REGION": "CENTRAL EAST", "LATITUDE": 40.50846004, "LONGITUDE": -74.26959636, "STATE_ID": null, "NAICS_CODE": null, "OWNER": null, "TTL_STAFF": null, "BEDS": 9999999, "TRAUMA": null }, "geometry": { "type": "Point", "coordinates": [ -74.269595527350489, 40.508451569800656 ] } },
{ "type": "Feature", "properties": { "OBJECTID": 190, "NAME": "Keansburg Community Health Center", "ADDRESS": "100 MAIN STREET", "CITY": "KEANSBURG", "STATE": "NJ", "ZIP": "07734", "TELEPHONE": "732-787-1250", "ALT_PHONE": "732-774-6333", "TYPE": "FEDERALLY QUALIFIED HEALTH CENTERS", "COUNTY": "MONMOUTH", "COUNTYFIPS": "34025", "ST_FIPS": "34", "COUNTRY": "US", "REGION": "CENTRAL EAST", "LATITUDE": 40.4480244, "LONGITUDE": -74.12934863, "STATE_ID": null, "NAICS_CODE": null, "OWNER": null, "TTL_STAFF": null, "BEDS": 9999999, "TRAUMA": null }, "geometry": { "type": "Point", "coordinates": [ -74.129347700393822, 40.44801607961962 ] } },
{ "type": "Feature", "properties": { "OBJECTID": 191, "NAME": "Keyport Primary Care Center", "ADDRESS": "35 BROAD STREET", "CITY": "KEYPORT", "STATE": "NJ", "ZIP": "07735", "TELEPHONE": "732-888-4149", "ALT_PHONE": "732-774-6333", "TYPE": "FEDERALLY QUALIFIED HEALTH CENTERS", "COUNTY": "MONMOUTH", "COUNTYFIPS": "34025", "ST_FIPS": "34", "COUNTRY": "US", "REGION": "CENTRAL EAST", "LATITUDE": 40.43810393, "LONGITUDE": -74.20181867, "STATE_ID": null, "NAICS_CODE": null, "OWNER": null, "TTL_STAFF": null, "BEDS": 9999999, "TRAUMA": null }, "geometry": { "type": "Point", "coordinates": [ -74.201817678443575, 40.438095517660294 ] } },
{ "type": "Feature", "properties": { "OBJECTID": 192, "NAME": "Kids' Corner - Bridgeton Middle School", "ADDRESS": "251 W. BROAD STREET", "CITY": "BRIDGETON", "STATE": "NJ", "ZIP": "08302", "TELEPHONE": "856-453-1233", "ALT_PHONE": null, "TYPE": "FEDERALLY QUALIFIED HEALTH CENTERS", "COUNTY": "CUMBERLAND", "COUNTYFIPS": "34011", "ST_FIPS": "34", "COUNTRY": "US", "REGION": "SOUTH", "LATITUDE": 39.43064681, "LONGITUDE": -75.24523702, "STATE_ID": null, "NAICS_CODE": null, "OWNER": null, "TTL_STAFF": null, "BEDS": 9999999, "TRAUMA": null }, "geometry": { "type": "Point", "coordinates": [ -75.245234145604314, 39.430641863003423 ] } },
{ "type": "Feature", "properties": { "OBJECTID": 193, "NAME": "Kids' Corner - Downe Elementary School", "ADDRESS": "ROUTE 553", "CITY": "NEWPORT", "STATE": "NJ", "ZIP": "08345", "TELEPHONE": "856-447-3227", "ALT_PHONE": null, "TYPE": "FEDERALLY QUALIFIED HEALTH CENTERS", "COUNTY": "CUMBERLAND", "COUNTYFIPS": "34011", "ST_FIPS": "34", "COUNTRY": "US", "REGION": "SOUTH", "LATITUDE": 39.29722909, "LONGITUDE": -75.165171, "STATE_ID": null, "NAICS_CODE": null, "OWNER": null, "TTL_STAFF": null, "BEDS": 9999999, "TRAUMA": null }, "geometry": { "type": "Point", "coordinates": [ -75.165167788021463, 39.297224474152188 ] } },
{ "type": "Feature", "properties": { "OBJECTID": 194, "NAME": "Metropolitan Family Health Center", "ADDRESS": "5300 BERGENLINE AVE", "CITY": "WEST NEW YORK", "STATE": "NJ", "ZIP": "07093", "TELEPHONE": "201-478-5851", "ALT_PHONE": null, "TYPE": "FEDERALLY QUALIFIED HEALTH CENTERS", "COUNTY": "HUDSON", "COUNTYFIPS": "34017", "ST_FIPS": "34", "COUNTRY": "US", "REGION": "NORTH EAST", "LATITUDE": 40.78465049, "LONGITUDE": -74.01937399000001, "STATE_ID": null, "NAICS_CODE": null, "OWNER": null, "TTL_STAFF": null, "BEDS": 9999999, "TRAUMA": null }, "geometry": { "type": "Point", "coordinates": [ -74.019372236735776, 40.784641794058132 ] } },
{ "type": "Feature", "properties": { "OBJECTID": 195, "NAME": "Metropolitan Family Health Network", "ADDRESS": "935 GARFIELD AVENUE", "CITY": "JERSEY CITY", "STATE": "NJ", "ZIP": "07304", "TELEPHONE": "201-478-5800", "ALT_PHONE": null, "TYPE": "FEDERALLY QUALIFIED HEALTH CENTERS", "COUNTY": "HUDSON", "COUNTYFIPS": "34017", "ST_FIPS": "34", "COUNTRY": "US", "REGION": "NORTH EAST", "LATITUDE": 40.71112178, "LONGITUDE": -74.07048849, "STATE_ID": null, "NAICS_CODE": null, "OWNER": null, "TTL_STAFF": null, "BEDS": 9999999, "TRAUMA": null }, "geometry": { "type": "Point", "coordinates": [ -74.07048681403873, 40.711113231999292 ] } },
{ "type": "Feature", "properties": { "OBJECTID": 196, "NAME": "Metropolitan Family Health Network at Bergen Ave", "ADDRESS": "857 BERGEN AVE", "CITY": "JERSEY CITY", "STATE": "NJ", "ZIP": "07306", "TELEPHONE": "201-478-5800", "ALT_PHONE": null, "TYPE": "FEDERALLY QUALIFIED HEALTH CENTERS", "COUNTY": "HUDSON", "COUNTYFIPS": "34017", "ST_FIPS": "34", "COUNTRY": "US", "REGION": "NORTH EAST", "LATITUDE": 40.72888786, "LONGITUDE": -74.06675993, "STATE_ID": null, "NAICS_CODE": null, "OWNER": null, "TTL_STAFF": null, "BEDS": 9999999, "TRAUMA": null }, "geometry": { "type": "Point", "coordinates": [ -74.0667581857914, 40.72887928122141 ] } },
{ "type": "Feature", "properties": { "OBJECTID": 197, "NAME": "Millville Community Health Center", "ADDRESS": "1200 N. HIGH STREET", "CITY": "MILLVILLE", "STATE": "NJ", "ZIP": "08332", "TELEPHONE": "856-451-4700", "ALT_PHONE": null, "TYPE": "FEDERALLY QUALIFIED HEALTH CENTERS", "COUNTY": "CUMBERLAND", "COUNTYFIPS": "34011", "ST_FIPS": "34", "COUNTRY": "US", "REGION": "SOUTH", "LATITUDE": 39.41023377, "LONGITUDE": -75.0400659, "STATE_ID": null, "NAICS_CODE": null, "OWNER": null, "TTL_STAFF": null, "BEDS": 9999999, "TRAUMA": null }, "geometry": { "type": "Point", "coordinates": [ -75.040063918612944, 39.410229946597305 ] } },
{ "type": "Feature", "properties": { "OBJECTID": 198, "NAME": "Monmouth Family Health Center - Broadway", "ADDRESS": "270 BROADWAY", "CITY": "LONG BRANCH", "STATE": "NJ", "ZIP": "07740", "TELEPHONE": "732-923-7100", "ALT_PHONE": "917-453-4827", "TYPE": "FEDERALLY QUALIFIED HEALTH CENTERS", "COUNTY": "MONMOUTH", "COUNTYFIPS": "34025", "ST_FIPS": "34", "COUNTRY": "US", "REGION": "CENTRAL EAST", "LATITUDE": 40.3039573, "LONGITUDE": -73.99014493, "STATE_ID": null, "NAICS_CODE": null, "OWNER": null, "TTL_STAFF": null, "BEDS": 9999999, "TRAUMA": null }, "geometry": { "type": "Point", "coordinates": [ -73.990144466604477, 40.303949330200403 ] } },
{ "type": "Feature", "properties": { "OBJECTID": 199, "NAME": "Monmouth Family Health Center - Dental Clinic", "ADDRESS": "300 SECOND AVE", "CITY": "LONG BRANCH", "STATE": "NJ", "ZIP": "07740", "TELEPHONE": "732-923-6585", "ALT_PHONE": null, "TYPE": "FEDERALLY QUALIFIED HEALTH CENTERS", "COUNTY": "MONMOUTH", "COUNTYFIPS": "34025", "ST_FIPS": "34", "COUNTRY": "US", "REGION": "CENTRAL EAST", "LATITUDE": 40.29555038, "LONGITUDE": -73.98460309, "STATE_ID": null, "NAICS_CODE": null, "OWNER": null, "TTL_STAFF": null, "BEDS": 9999999, "TRAUMA": null }, "geometry": { "type": "Point", "coordinates": [ -73.984602658260897, 40.295542414603133 ] } },
{ "type": "Feature", "properties": { "OBJECTID": 200, "NAME": "NHCAC CHC at 8th Street Passaic", "ADDRESS": "148 8TH STREET", "CITY": "PASSAIC", "STATE": "NJ", "ZIP": "07055", "TELEPHONE": "973-470-3033", "ALT_PHONE": null, "TYPE": "FEDERALLY QUALIFIED HEALTH CENTERS", "COUNTY": "PASSAIC", "COUNTYFIPS": "34031", "ST_FIPS": "34", "COUNTRY": "US", "REGION": "NORTH WEST", "LATITUDE": 40.86108678, "LONGITUDE": -74.1097397, "STATE_ID": null, "NAICS_CODE": null, "OWNER": null, "TTL_STAFF": null, "BEDS": 9999999, "TRAUMA": null }, "geometry": { "type": "Point", "coordinates": [ -74.109737815794546, 40.861078432627828 ] } },
{ "type": "Feature", "properties": { "OBJECTID": 201, "NAME": "NHCAC CHC at Hoboken", "ADDRESS": "124 GRAND STREET", "CITY": "HOBOKEN", "STATE": "NJ", "ZIP": "07030", "TELEPHONE": "201-795-9521", "ALT_PHONE": null, "TYPE": "FEDERALLY QUALIFIED HEALTH CENTERS", "COUNTY": "HUDSON", "COUNTYFIPS": "34017", "ST_FIPS": "34", "COUNTRY": "US", "REGION": "NORTH EAST", "LATITUDE": 40.73938854, "LONGITUDE": -74.03617636, "STATE_ID": null, "NAICS_CODE": null, "OWNER": null, "TTL_STAFF": null, "BEDS": 9999999, "TRAUMA": null }, "geometry": { "type": "Point", "coordinates": [ -74.036174615465171, 40.739379857654733 ] } },
{ "type": "Feature", "properties": { "OBJECTID": 202, "NAME": "NHCAC CHC at Passaic", "ADDRESS": "110 MAIN AVENUE", "CITY": "PASSAIC", "STATE": "NJ", "ZIP": "07055", "TELEPHONE": "973-777-0256", "ALT_PHONE": null, "TYPE": "FEDERALLY QUALIFIED HEALTH CENTERS", "COUNTY": "PASSAIC", "COUNTYFIPS": "34031", "ST_FIPS": "34", "COUNTRY": "US", "REGION": "NORTH WEST", "LATITUDE": 40.84323753, "LONGITUDE": -74.12964306000001, "STATE_ID": null, "NAICS_CODE": null, "OWNER": null, "TTL_STAFF": null, "BEDS": 9999999, "TRAUMA": null }, "geometry": { "type": "Point", "coordinates": [ -74.129641149597319, 40.843229209594973 ] } },
{ "type": "Feature", "properties": { "OBJECTID": 203, "NAME": "NHCAC Garfield", "ADDRESS": "535 MIDLAND AVENUE", "CITY": "GARFIELD", "STATE": "NJ", "ZIP": "07026", "TELEPHONE": "973-340-1182", "ALT_PHONE": null, "TYPE": "FEDERALLY QUALIFIED HEALTH CENTERS", "COUNTY": "BERGEN", "COUNTYFIPS": "34003", "ST_FIPS": "34", "COUNTRY": "US", "REGION": "NORTH EAST", "LATITUDE": 40.88273189, "LONGITUDE": -74.10145021, "STATE_ID": null, "NAICS_CODE": null, "OWNER": null, "TTL_STAFF": null, "BEDS": 9999999, "TRAUMA": null }, "geometry": { "type": "Point", "coordinates": [ -74.101448333020898, 40.882723554108019 ] } },
{ "type": "Feature", "properties": { "OBJECTID": 204, "NAME": "NHCAC Hackensack", "ADDRESS": "25 EAST SALEM STREET", "CITY": "HACKENSACK", "STATE": "NJ", "ZIP": "07601", "TELEPHONE": "201-996-2121", "ALT_PHONE": null, "TYPE": "FEDERALLY QUALIFIED HEALTH CENTERS", "COUNTY": "BERGEN", "COUNTYFIPS": "34003", "ST_FIPS": "34", "COUNTRY": "US", "REGION": "NORTH EAST", "LATITUDE": 40.88565881, "LONGITUDE": -74.04152559000001, "STATE_ID": null, "NAICS_CODE": null, "OWNER": null, "TTL_STAFF": null, "BEDS": 9999999, "TRAUMA": null }, "geometry": { "type": "Point", "coordinates": [ -74.041523798634344, 40.885650349816288 ] } },
{ "type": "Feature", "properties": { "OBJECTID": 205, "NAME": "NHCAC Health Center", "ADDRESS": "5301 BROADWAY", "CITY": "WEST NEW YORK", "STATE": "NJ", "ZIP": "07093", "TELEPHONE": "201-866-9320", "ALT_PHONE": null, "TYPE": "FEDERALLY QUALIFIED HEALTH CENTERS", "COUNTY": "HUDSON", "COUNTYFIPS": "34017", "ST_FIPS": "34", "COUNTRY": "US", "REGION": "NORTH EAST", "LATITUDE": 40.78262992, "LONGITUDE": -74.01433751, "STATE_ID": null, "NAICS_CODE": null, "OWNER": null, "TTL_STAFF": null, "BEDS": 9999999, "TRAUMA": null }, "geometry": { "type": "Point", "coordinates": [ -74.014335759757458, 40.782621213411517 ] } },
{ "type": "Feature", "properties": { "OBJECTID": 206, "NAME": "NHCAC Health Center at Englewood", "ADDRESS": "197 SOUTH VAN BRUNT ST", "CITY": "ENGLEWOOD", "STATE": "NJ", "ZIP": "07631", "TELEPHONE": "201-537-4442", "ALT_PHONE": null, "TYPE": "FEDERALLY QUALIFIED HEALTH CENTERS", "COUNTY": "BERGEN", "COUNTYFIPS": "34003", "ST_FIPS": "34", "COUNTRY": "US", "REGION": "NORTH EAST", "LATITUDE": 40.88871598, "LONGITUDE": -73.98106281, "STATE_ID": null, "NAICS_CODE": null, "OWNER": null, "TTL_STAFF": null, "BEDS": 9999999, "TRAUMA": null }, "geometry": { "type": "Point", "coordinates": [ -73.981061104921395, 40.888707402242112 ] } },
{ "type": "Feature", "properties": { "OBJECTID": 207, "NAME": "NHCAC Health Center at Union City High School", "ADDRESS": "2500 KENNEDY BLVD", "CITY": "UNION CITY", "STATE": "NJ", "ZIP": "07087", "TELEPHONE": "201-553-7888", "ALT_PHONE": null, "TYPE": "FEDERALLY QUALIFIED HEALTH CENTERS", "COUNTY": "HUDSON", "COUNTYFIPS": "34017", "ST_FIPS": "34", "COUNTRY": "US", "REGION": "NORTH EAST", "LATITUDE": 40.77075016, "LONGITUDE": -74.03596988, "STATE_ID": null, "NAICS_CODE": null, "OWNER": null, "TTL_STAFF": null, "BEDS": 9999999, "TRAUMA": null }, "geometry": { "type": "Point", "coordinates": [ -74.035968103342043, 40.77074149252865 ] } },
{ "type": "Feature", "properties": { "OBJECTID": 208, "NAME": "NHCAC Jersey City", "ADDRESS": "324 PALISADE AVENUE", "CITY": "JERSEY CITY", "STATE": "NJ", "ZIP": "07307", "TELEPHONE": "201-459-8888", "ALT_PHONE": null, "TYPE": "FEDERALLY QUALIFIED HEALTH CENTERS", "COUNTY": "HUDSON", "COUNTYFIPS": "34017", "ST_FIPS": "34", "COUNTRY": "US", "REGION": "NORTH EAST", "LATITUDE": 40.7396547, "LONGITUDE": -74.04651273, "STATE_ID": null, "NAICS_CODE": null, "OWNER": null, "TTL_STAFF": null, "BEDS": 9999999, "TRAUMA": null }, "geometry": { "type": "Point", "coordinates": [ -74.046510978745005, 40.739646043427889 ] } },
{ "type": "Feature", "properties": { "OBJECTID": 209, "NAME": "NHCAC Mobile Unit", "ADDRESS": "5301 BROADWAY", "CITY": "WEST NEW YORK", "STATE": "NJ", "ZIP": "07093", "TELEPHONE": "201-866-9320", "ALT_PHONE": null, "TYPE": "FEDERALLY QUALIFIED HEALTH CENTERS", "COUNTY": "HUDSON", "COUNTYFIPS": "34017", "ST_FIPS": "34", "COUNTRY": "US", "REGION": "NORTH EAST", "LATITUDE": 40.78250873, "LONGITUDE": -74.0144243, "STATE_ID": null, "NAICS_CODE": null, "OWNER": null, "TTL_STAFF": null, "BEDS": 9999999, "TRAUMA": null }, "geometry": { "type": "Point", "coordinates": [ -74.014422550429785, 40.782500014369766 ] } },
{ "type": "Feature", "properties": { "OBJECTID": 210, "NAME": "NHCAC North Bergen", "ADDRESS": "1116 43RD STREET", "CITY": "NORTH BERGEN", "STATE": "NJ", "ZIP": "07047", "TELEPHONE": "201-330-2632", "ALT_PHONE": null, "TYPE": "FEDERALLY QUALIFIED HEALTH CENTERS", "COUNTY": "HUDSON", "COUNTYFIPS": "34017", "ST_FIPS": "34", "COUNTRY": "US", "REGION": "NORTH EAST", "LATITUDE": 40.78000304, "LONGITUDE": -74.02682349, "STATE_ID": null, "NAICS_CODE": null, "OWNER": null, "TTL_STAFF": null, "BEDS": 9999999, "TRAUMA": null }, "geometry": { "type": "Point", "coordinates": [ -74.026821729282858, 40.779994364753563 ] } },
{ "type": "Feature", "properties": { "OBJECTID": 211, "NAME": "NHCAC Union City", "ADDRESS": "714 31ST STREET", "CITY": "UNION CITY", "STATE": "NJ", "ZIP": "07087", "TELEPHONE": "201-863-7077", "ALT_PHONE": null, "TYPE": "FEDERALLY QUALIFIED HEALTH CENTERS", "COUNTY": "HUDSON", "COUNTYFIPS": "34017", "ST_FIPS": "34", "COUNTRY": "US", "REGION": "NORTH EAST", "LATITUDE": 40.77288409, "LONGITUDE": -74.03184749, "STATE_ID": null, "NAICS_CODE": null, "OWNER": null, "TTL_STAFF": null, "BEDS": 9999999, "TRAUMA": null }, "geometry": { "type": "Point", "coordinates": [ -74.031845724228219, 40.772875410758161 ] } },
{ "type": "Feature", "properties": { "OBJECTID": 212, "NAME": "Neighborhood Health Center - Cardinal", "ADDRESS": "950 PARK AVENUE", "CITY": "PLAINFIELD", "STATE": "NJ", "ZIP": "07060", "TELEPHONE": "908-754-5840", "ALT_PHONE": null, "TYPE": "FEDERALLY QUALIFIED HEALTH CENTERS", "COUNTY": "UNION", "COUNTYFIPS": "34039", "ST_FIPS": "34", "COUNTRY": "US", "REGION": "CENTRAL EAST", "LATITUDE": 40.61196411, "LONGITUDE": -74.4122321, "STATE_ID": null, "NAICS_CODE": null, "OWNER": null, "TTL_STAFF": null, "BEDS": 9999999, "TRAUMA": null }, "geometry": { "type": "Point", "coordinates": [ -74.412230327745448, 40.611955853973285 ] } },
{ "type": "Feature", "properties": { "OBJECTID": 213, "NAME": "Neighborhood Health Center - Elizabeth", "ADDRESS": "184 FIRST STREET, 2nd Floor", "CITY": "ELIZABETH", "STATE": "NJ", "ZIP": "07206", "TELEPHONE": "908-355-4459", "ALT_PHONE": null, "TYPE": "FEDERALLY QUALIFIED HEALTH CENTERS", "COUNTY": "UNION", "COUNTYFIPS": "34039", "ST_FIPS": "34", "COUNTRY": "US", "REGION": "CENTRAL EAST", "LATITUDE": 40.65022457, "LONGITUDE": -74.18409813, "STATE_ID": null, "NAICS_CODE": null, "OWNER": null, "TTL_STAFF": null, "BEDS": 9999999, "TRAUMA": null }, "geometry": { "type": "Point", "coordinates": [ -74.184096640865405, 40.65021626517057 ] } },
{ "type": "Feature", "properties": { "OBJECTID": 214, "NAME": "Neighborhood Health Center - Newton", "ADDRESS": "238 SPRING STREET", "CITY": "NEWTON", "STATE": "NJ", "ZIP": "07860", "TELEPHONE": "973-383-7001", "ALT_PHONE": null, "TYPE": "FEDERALLY QUALIFIED HEALTH CENTERS", "COUNTY": "SUSSEX", "COUNTYFIPS": "34037", "ST_FIPS": "34", "COUNTRY": "US", "REGION": "NORTH WEST", "LATITUDE": 41.05573438, "LONGITUDE": -74.74956206, "STATE_ID": null, "NAICS_CODE": null, "OWNER": null, "TTL_STAFF": null, "BEDS": 9999999, "TRAUMA": null }, "geometry": { "type": "Point", "coordinates": [ -74.749560173364088, 41.055726270118029 ] } },
{ "type": "Feature", "properties": { "OBJECTID": 215, "NAME": "Neighborhood Health Center - Phillipsburg", "ADDRESS": "427 N MAIN ST", "CITY": "PHILLIPSBURG", "STATE": "NJ", "ZIP": "08865", "TELEPHONE": "908-454-4600", "ALT_PHONE": null, "TYPE": "FEDERALLY QUALIFIED HEALTH CENTERS", "COUNTY": "WARREN", "COUNTYFIPS": "34041", "ST_FIPS": "34", "COUNTRY": "US", "REGION": "NORTH WEST", "LATITUDE": 40.70054858, "LONGITUDE": -75.1954927, "STATE_ID": null, "NAICS_CODE": null, "OWNER": null, "TTL_STAFF": null, "BEDS": 9999999, "TRAUMA": null }, "geometry": { "type": "Point", "coordinates": [ -75.195489477838535, 40.700541044289338 ] } },
{ "type": "Feature", "properties": { "OBJECTID": 216, "NAME": "Neighborhood Health Center - The Healthy Place", "ADDRESS": "427 DARROW AVENUE", "CITY": "PLAINFIELD", "STATE": "NJ", "ZIP": "07060", "TELEPHONE": "908-731-4288", "ALT_PHONE": null, "TYPE": "FEDERALLY QUALIFIED HEALTH CENTERS", "COUNTY": "UNION", "COUNTYFIPS": "34039", "ST_FIPS": "34", "COUNTRY": "US", "REGION": "CENTRAL EAST", "LATITUDE": 40.60646227, "LONGITUDE": -74.43008522, "STATE_ID": null, "NAICS_CODE": null, "OWNER": null, "TTL_STAFF": null, "BEDS": 9999999, "TRAUMA": null }, "geometry": { "type": "Point", "coordinates": [ -74.430083392758533, 40.606454003141906 ] } },
{ "type": "Feature", "properties": { "OBJECTID": 217, "NAME": "Neighborhood Health Services - Plainfield", "ADDRESS": "1700-58 MYRTLE AVENUE", "CITY": "PLAINFIELD", "STATE": "NJ", "ZIP": "07063", "TELEPHONE": "908-753-6401", "ALT_PHONE": null, "TYPE": "FEDERALLY QUALIFIED HEALTH CENTERS", "COUNTY": "UNION", "COUNTYFIPS": "34039", "ST_FIPS": "34", "COUNTRY": "US", "REGION": "CENTRAL EAST", "LATITUDE": 40.59933625, "LONGITUDE": -74.4559041, "STATE_ID": null, "NAICS_CODE": null, "OWNER": null, "TTL_STAFF": null, "BEDS": 9999999, "TRAUMA": null }, "geometry": { "type": "Point", "coordinates": [ -74.455902203332798, 40.599327968203291 ] } },
{ "type": "Feature", "properties": { "OBJECTID": 218, "NAME": "Newark Community Health Center", "ADDRESS": "101 LUDLOW STREET", "CITY": "NEWARK", "STATE": "NJ", "ZIP": "07114", "TELEPHONE": "973-565-0355", "ALT_PHONE": null, "TYPE": "FEDERALLY QUALIFIED HEALTH CENTERS", "COUNTY": "ESSEX", "COUNTYFIPS": "34013", "ST_FIPS": "34", "COUNTRY": "US", "REGION": "NORTH EAST", "LATITUDE": 40.68935039, "LONGITUDE": -74.20579852, "STATE_ID": null, "NAICS_CODE": null, "OWNER": null, "TTL_STAFF": null, "BEDS": 9999999, "TRAUMA": null }, "geometry": { "type": "Point", "coordinates": [ -74.205796827436288, 40.689342159490394 ] } },
{ "type": "Feature", "properties": { "OBJECTID": 219, "NAME": "Newark Community Health Center St. James Hospital", "ADDRESS": "155 JEFFERSON ST", "CITY": "NEWARK", "STATE": "NJ", "ZIP": "07105", "TELEPHONE": "973-483-1399", "ALT_PHONE": null, "TYPE": "FEDERALLY QUALIFIED HEALTH CENTERS", "COUNTY": "ESSEX", "COUNTYFIPS": "34013", "ST_FIPS": "34", "COUNTRY": "US", "REGION": "NORTH EAST", "LATITUDE": 40.72809253, "LONGITUDE": -74.16353863000001, "STATE_ID": null, "NAICS_CODE": null, "OWNER": null, "TTL_STAFF": null, "BEDS": 9999999, "TRAUMA": null }, "geometry": { "type": "Point", "coordinates": [ -74.163536790937997, 40.728084231422251 ] } },
{ "type": "Feature", "properties": { "OBJECTID": 220, "NAME": "Newark Community Health Centers, Inc", "ADDRESS": "741 BROADWAY", "CITY": "NEWARK", "STATE": "NJ", "ZIP": "07104", "TELEPHONE": "973-483-1300", "ALT_PHONE": null, "TYPE": "FEDERALLY QUALIFIED HEALTH CENTERS", "COUNTY": "ESSEX", "COUNTYFIPS": "34013", "ST_FIPS": "34", "COUNTRY": "US", "REGION": "NORTH EAST", "LATITUDE": 40.77506811, "LONGITUDE": -74.15876739, "STATE_ID": null, "NAICS_CODE": null, "OWNER": null, "TTL_STAFF": null, "BEDS": 9999999, "TRAUMA": null }, "geometry": { "type": "Point", "coordinates": [ -74.158765455479156, 40.775059820916645 ] } },
{ "type": "Feature", "properties": { "OBJECTID": 221, "NAME": "Newark Homeless Health Care Project", "ADDRESS": "110 WILLIAM STREET", "CITY": "NEWARK", "STATE": "NJ", "ZIP": "07102", "TELEPHONE": "973-733-5300", "ALT_PHONE": null, "TYPE": "FEDERALLY QUALIFIED HEALTH CENTERS", "COUNTY": "ESSEX", "COUNTYFIPS": "34013", "ST_FIPS": "34", "COUNTRY": "US", "REGION": "NORTH EAST", "LATITUDE": 40.73445215, "LONGITUDE": -74.17890166, "STATE_ID": null, "NAICS_CODE": null, "OWNER": null, "TTL_STAFF": null, "BEDS": 9999999, "TRAUMA": null }, "geometry": { "type": "Point", "coordinates": [ -74.178899775731381, 40.734443894859773 ] } },
{ "type": "Feature", "properties": { "OBJECTID": 222, "NAME": "North Hudson Community Action Corp Health Center", "ADDRESS": "800 31ST STREET", "CITY": "UNION CITY", "STATE": "NJ", "ZIP": "07087", "TELEPHONE": "201-210-0100", "ALT_PHONE": null, "TYPE": "FEDERALLY QUALIFIED HEALTH CENTERS", "COUNTY": "HUDSON", "COUNTYFIPS": "34017", "ST_FIPS": "34", "COUNTRY": "US", "REGION": "NORTH EAST", "LATITUDE": 40.77341147, "LONGITUDE": -74.0330172, "STATE_ID": null, "NAICS_CODE": null, "OWNER": null, "TTL_STAFF": null, "BEDS": 9999999, "TRAUMA": null }, "geometry": { "type": "Point", "coordinates": [ -74.033015433779937, 40.773402797176736 ] } },
{ "type": "Feature", "properties": { "OBJECTID": 223, "NAME": "Ocean Health Initiatives - Lakewood", "ADDRESS": "101 SECOND STREET", "CITY": "LAKEWOOD", "STATE": "NJ", "ZIP": "08701", "TELEPHONE": "732-363-6655", "ALT_PHONE": null, "TYPE": "FEDERALLY QUALIFIED HEALTH CENTERS", "COUNTY": "OCEAN", "COUNTYFIPS": "34029", "ST_FIPS": "34", "COUNTRY": "US", "REGION": "CENTRAL EAST", "LATITUDE": 40.09271327, "LONGITUDE": -74.21065364, "STATE_ID": null, "NAICS_CODE": null, "OWNER": null, "TTL_STAFF": null, "BEDS": 9999999, "TRAUMA": null }, "geometry": { "type": "Point", "coordinates": [ -74.210651643822345, 40.092705195821033 ] } },
{ "type": "Feature", "properties": { "OBJECTID": 224, "NAME": "Ocean Health Initiatives - Manchester", "ADDRESS": "686 STHY 70", "CITY": "LAKEHURST", "STATE": "NJ", "ZIP": "08733", "TELEPHONE": null, "ALT_PHONE": null, "TYPE": "FEDERALLY QUALIFIED HEALTH CENTERS", "COUNTY": "OCEAN", "COUNTYFIPS": "34029", "ST_FIPS": "34", "COUNTRY": "US", "REGION": "CENTRAL EAST", "LATITUDE": 40.01276303, "LONGITUDE": -74.32563893, "STATE_ID": null, "NAICS_CODE": null, "OWNER": null, "TTL_STAFF": null, "BEDS": 9999999, "TRAUMA": null }, "geometry": { "type": "Point", "coordinates": [ -74.325637182080982, 40.012755392495393 ] } },
{ "type": "Feature", "properties": { "OBJECTID": 225, "NAME": "Ocean Health Initiatives - Toms River", "ADDRESS": "301 LAKEHURST ROAD", "CITY": "TOMS RIVER", "STATE": "NJ", "ZIP": "08755", "TELEPHONE": "732-552-0377", "ALT_PHONE": null, "TYPE": "FEDERALLY QUALIFIED HEALTH CENTERS", "COUNTY": "OCEAN", "COUNTYFIPS": "34029", "ST_FIPS": "34", "COUNTRY": "US", "REGION": "CENTRAL EAST", "LATITUDE": 39.95738402, "LONGITUDE": -74.21149396, "STATE_ID": null, "NAICS_CODE": null, "OWNER": null, "TTL_STAFF": null, "BEDS": 9999999, "TRAUMA": null }, "geometry": { "type": "Point", "coordinates": [ -74.211492283984612, 39.957376459328657 ] } },
{ "type": "Feature", "properties": { "OBJECTID": 226, "NAME": "Ocean Health Initiatives Mobile Unit", "ADDRESS": "101 SECOND STREET", "CITY": "LAKEWOOD", "STATE": "NJ", "ZIP": "08701", "TELEPHONE": "732-363-6655", "ALT_PHONE": null, "TYPE": "FEDERALLY QUALIFIED HEALTH CENTERS", "COUNTY": "OCEAN", "COUNTYFIPS": "34029", "ST_FIPS": "34", "COUNTRY": "US", "REGION": "CENTRAL EAST", "LATITUDE": 40.09279898, "LONGITUDE": -74.21067607000001, "STATE_ID": null, "NAICS_CODE": null, "OWNER": null, "TTL_STAFF": null, "BEDS": 9999999, "TRAUMA": null }, "geometry": { "type": "Point", "coordinates": [ -74.210674073287777, 40.092790905860468 ] } },
{ "type": "Feature", "properties": { "OBJECTID": 227, "NAME": "Ocean Health Initiatives at Clifton Avenue Grade School - SBHC", "ADDRESS": "625 CLIFTON AVENUE", "CITY": "LAKEWOOD", "STATE": "NJ", "ZIP": "08701", "TELEPHONE": "732-719-1505", "ALT_PHONE": null, "TYPE": "FEDERALLY QUALIFIED HEALTH CENTERS", "COUNTY": "OCEAN", "COUNTYFIPS": "34029", "ST_FIPS": "34", "COUNTRY": "US", "REGION": "CENTRAL EAST", "LATITUDE": 40.09673473, "LONGITUDE": -74.21435581, "STATE_ID": null, "NAICS_CODE": null, "OWNER": null, "TTL_STAFF": null, "BEDS": 9999999, "TRAUMA": null }, "geometry": { "type": "Point", "coordinates": [ -74.214353813999821, 40.096726645755858 ] } },
{ "type": "Feature", "properties": { "OBJECTID": 228, "NAME": "Ocean Health Initiatives- Stafford", "ADDRESS": "333 HAYWOOD RD", "CITY": "MANAHAWKIN", "STATE": "NJ", "ZIP": "08050", "TELEPHONE": "609-489-0110", "ALT_PHONE": null, "TYPE": "FEDERALLY QUALIFIED HEALTH CENTERS", "COUNTY": "OCEAN", "COUNTYFIPS": "34029", "ST_FIPS": "34", "COUNTRY": "US", "REGION": "CENTRAL EAST", "LATITUDE": 39.71307562, "LONGITUDE": -74.28950709, "STATE_ID": null, "NAICS_CODE": null, "OWNER": null, "TTL_STAFF": null, "BEDS": 9999999, "TRAUMA": null }, "geometry": { "type": "Point", "coordinates": [ -74.289507771491444, 39.713069765616936 ] } },
{ "type": "Feature", "properties": { "OBJECTID": 229, "NAME": "Orange Community Health Center", "ADDRESS": "37 NORTH DAY STREET", "CITY": "ORANGE", "STATE": "NJ", "ZIP": "07050", "TELEPHONE": "973-395-2611", "ALT_PHONE": null, "TYPE": "FEDERALLY QUALIFIED HEALTH CENTERS", "COUNTY": "ESSEX", "COUNTYFIPS": "34013", "ST_FIPS": "34", "COUNTRY": "US", "REGION": "NORTH EAST", "LATITUDE": 40.77329559, "LONGITUDE": -74.22889665, "STATE_ID": null, "NAICS_CODE": null, "OWNER": null, "TTL_STAFF": null, "BEDS": 9999999, "TRAUMA": null }, "geometry": { "type": "Point", "coordinates": [ -74.228894628377475, 40.77328750842387 ] } },
{ "type": "Feature", "properties": { "OBJECTID": 230, "NAME": "Paterson Community Health Center", "ADDRESS": "32 CLINTON STREET", "CITY": "PATERSON", "STATE": "NJ", "ZIP": "07522", "TELEPHONE": "973-790-6594", "ALT_PHONE": null, "TYPE": "FEDERALLY QUALIFIED HEALTH CENTERS", "COUNTY": "PASSAIC", "COUNTYFIPS": "34031", "ST_FIPS": "34", "COUNTRY": "US", "REGION": "NORTH WEST", "LATITUDE": 40.92412638, "LONGITUDE": -74.17216665, "STATE_ID": null, "NAICS_CODE": null, "OWNER": null, "TTL_STAFF": null, "BEDS": 9999999, "TRAUMA": null }, "geometry": { "type": "Point", "coordinates": [ -74.172164678803455, 40.924118211201851 ] } },
{ "type": "Feature", "properties": { "OBJECTID": 231, "NAME": "Paterson Community Health Center", "ADDRESS": "227 BROADWAY", "CITY": "PATERSON", "STATE": "NJ", "ZIP": "07501", "TELEPHONE": "973-278-2600", "ALT_PHONE": null, "TYPE": "FEDERALLY QUALIFIED HEALTH CENTERS", "COUNTY": "PASSAIC", "COUNTYFIPS": "34031", "ST_FIPS": "34", "COUNTRY": "US", "REGION": "NORTH WEST", "LATITUDE": 40.92412638, "LONGITUDE": -74.17216665, "STATE_ID": null, "NAICS_CODE": null, "OWNER": null, "TTL_STAFF": null, "BEDS": 9999999, "TRAUMA": null }, "geometry": { "type": "Point", "coordinates": [ -74.165262907075274, 40.918761495315294 ] } },
{ "type": "Feature", "properties": { "OBJECTID": 232, "NAME": "Pleasantville Center", "ADDRESS": "932 SOUTH MAIN STREET", "CITY": "PLEASANTVILLE", "STATE": "NJ", "ZIP": "08232", "TELEPHONE": "609-383-0880", "ALT_PHONE": null, "TYPE": "FEDERALLY QUALIFIED HEALTH CENTERS", "COUNTY": "ATLANTIC", "COUNTYFIPS": "34001", "ST_FIPS": "34", "COUNTRY": "US", "REGION": "SOUTH", "LATITUDE": 39.38309725, "LONGITUDE": -74.53023501, "STATE_ID": null, "NAICS_CODE": null, "OWNER": null, "TTL_STAFF": null, "BEDS": 9999999, "TRAUMA": null }, "geometry": { "type": "Point", "coordinates": [ -74.530234799625518, 39.383092703022683 ] } },
{ "type": "Feature", "properties": { "OBJECTID": 233, "NAME": "Project H.O.P.E Inc at West Street Health Center", "ADDRESS": "519 WEST ST", "CITY": "Camden", "STATE": "NJ", "ZIP": "08103", "TELEPHONE": "856-968-2320", "ALT_PHONE": null, "TYPE": "FEDERALLY QUALIFIED HEALTH CENTERS", "COUNTY": "CAMDEN", "COUNTYFIPS": "34007", "ST_FIPS": "34", "COUNTRY": "US", "REGION": "SOUTH", "LATITUDE": 39.93878228, "LONGITUDE": -75.12223602, "STATE_ID": null, "NAICS_CODE": null, "OWNER": null, "TTL_STAFF": null, "BEDS": 9999999, "TRAUMA": null }, "geometry": { "type": "Point", "coordinates": [ -75.122232775059587, 39.938775662300941 ] } },
{ "type": "Feature", "properties": { "OBJECTID": 234, "NAME": "Project H.O.P.E. Inc", "ADDRESS": "622 COOPER ST", "CITY": "CAMDEN", "STATE": "NJ", "ZIP": "08102", "TELEPHONE": "856-541-6092", "ALT_PHONE": null, "TYPE": "FEDERALLY QUALIFIED HEALTH CENTERS", "COUNTY": "CAMDEN", "COUNTYFIPS": "34007", "ST_FIPS": "34", "COUNTRY": "US", "REGION": "SOUTH", "LATITUDE": 39.94592755, "LONGITUDE": -75.11813238000001, "STATE_ID": null, "NAICS_CODE": null, "OWNER": null, "TTL_STAFF": null, "BEDS": 9999999, "TRAUMA": null }, "geometry": { "type": "Point", "coordinates": [ -75.118129134106084, 39.94592089187298 ] } },
{ "type": "Feature", "properties": { "OBJECTID": 235, "NAME": "Project H.O.P.E. Mobile Unit", "ADDRESS": "439 CLINTON STREET", "CITY": "CAMDEN", "STATE": "NJ", "ZIP": "08103", "TELEPHONE": "856-968-2320", "ALT_PHONE": null, "TYPE": "FEDERALLY QUALIFIED HEALTH CENTERS", "COUNTY": "CAMDEN", "COUNTYFIPS": "34007", "ST_FIPS": "34", "COUNTRY": "US", "REGION": "SOUTH", "LATITUDE": 39.93874501, "LONGITUDE": -75.12234219, "STATE_ID": null, "NAICS_CODE": null, "OWNER": null, "TTL_STAFF": null, "BEDS": 9999999, "TRAUMA": null }, "geometry": { "type": "Point", "coordinates": [ -75.12233894487396, 39.938738392476971 ] } },
{ "type": "Feature", "properties": { "OBJECTID": 236, "NAME": "Red Bank Community Health Center", "ADDRESS": "176 RIVERSIDE AVENUE", "CITY": "RED BANK", "STATE": "NJ", "ZIP": "07701", "TELEPHONE": "732-219-6620", "ALT_PHONE": "732-774-6333", "TYPE": "FEDERALLY QUALIFIED HEALTH CENTERS", "COUNTY": "MONMOUTH", "COUNTYFIPS": "34025", "ST_FIPS": "34", "COUNTRY": "US", "REGION": "CENTRAL EAST", "LATITUDE": 40.35373807, "LONGITUDE": -74.07510059000001, "STATE_ID": null, "NAICS_CODE": null, "OWNER": null, "TTL_STAFF": null, "BEDS": 9999999, "TRAUMA": null }, "geometry": { "type": "Point", "coordinates": [ -74.075099717511179, 40.353729914777766 ] } },
{ "type": "Feature", "properties": { "OBJECTID": 237, "NAME": "Atlanticare Regional Medical Center City Division", "ADDRESS": "1925 PACIFIC AVENUE", "CITY": "ATLANTIC CITY", "STATE": "NJ", "ZIP": "08401", "TELEPHONE": "609-345-4000", "ALT_PHONE": null, "TYPE": "ACUTE CARE HOSPITALS", "COUNTY": "ATLANTIC", "COUNTYFIPS": "34001", "ST_FIPS": "34", "COUNTRY": "US", "REGION": "SOUTH", "LATITUDE": 39.35900062, "LONGITUDE": -74.43428573, "STATE_ID": null, "NAICS_CODE": null, "OWNER": null, "TTL_STAFF": null, "BEDS": 9999999, "TRAUMA": "Level II" }, "geometry": { "type": "Point", "coordinates": [ -74.434285891258554, 39.358996253138983 ] } },
{ "type": "Feature", "properties": { "OBJECTID": 238, "NAME": "CentraState Medical Center", "ADDRESS": "901 WEST MAIN STREET", "CITY": "FREEHOLD", "STATE": "NJ", "ZIP": "07728", "TELEPHONE": "732-431-2000", "ALT_PHONE": null, "TYPE": "ACUTE CARE HOSPITALS", "COUNTY": "MONMOUTH", "COUNTYFIPS": "34025", "ST_FIPS": "34", "COUNTRY": "US", "REGION": "CENTRAL EAST", "LATITUDE": 40.2385835, "LONGITUDE": -74.31081231, "STATE_ID": null, "NAICS_CODE": null, "OWNER": null, "TTL_STAFF": null, "BEDS": 263, "TRAUMA": null }, "geometry": { "type": "Point", "coordinates": [ -74.310810252014392, 40.238575164179224 ] } },
{ "type": "Feature", "properties": { "OBJECTID": 239, "NAME": "Monmouth Medical Center", "ADDRESS": "300 SECOND AVENUE", "CITY": "LONG BRANCH", "STATE": "NJ", "ZIP": "07740", "TELEPHONE": "732-222-5200", "ALT_PHONE": null, "TYPE": "ACUTE CARE HOSPITALS", "COUNTY": "MONMOUTH", "COUNTYFIPS": "34025", "ST_FIPS": "34", "COUNTRY": "US", "REGION": "CENTRAL EAST", "LATITUDE": 40.29561563, "LONGITUDE": -73.98520803, "STATE_ID": null, "NAICS_CODE": null, "OWNER": null, "TTL_STAFF": null, "BEDS": 527, "TRAUMA": null }, "geometry": { "type": "Point", "coordinates": [ -73.985207590211004, 40.295607671510268 ] } },
{ "type": "Feature", "properties": { "OBJECTID": 240, "NAME": "Virtua West Jersey Hospital - Voorhees", "ADDRESS": "101 CARNIE BOULEVARD", "CITY": "VOORHEES", "STATE": "NJ", "ZIP": "08043", "TELEPHONE": "856-325-3000", "ALT_PHONE": null, "TYPE": "ACUTE CARE HOSPITALS", "COUNTY": "CAMDEN", "COUNTYFIPS": "34007", "ST_FIPS": "34", "COUNTRY": "US", "REGION": "SOUTH", "LATITUDE": 39.84258766, "LONGITUDE": -74.92677422, "STATE_ID": null, "NAICS_CODE": null, "OWNER": null, "TTL_STAFF": null, "BEDS": 200, "TRAUMA": null }, "geometry": { "type": "Point", "coordinates": [ -74.926772274447188, 39.842581424669113 ] } },
{ "type": "Feature", "properties": { "OBJECTID": 241, "NAME": "ARMC SED - Kessler", "ADDRESS": "219 N. WHITE HORSE PIKE", "CITY": "HAMMONTON", "STATE": "NJ", "ZIP": "08037-2014", "TELEPHONE": "609-561-1096", "ALT_PHONE": null, "TYPE": "SATELLITE EMERGENCY DEPARTMENTS", "COUNTY": "ATLANTIC", "COUNTYFIPS": "34001", "ST_FIPS": "34", "COUNTRY": "US", "REGION": "SOUTH", "LATITUDE": 39.65333437, "LONGITUDE": -74.79475733, "STATE_ID": null, "NAICS_CODE": null, "OWNER": null, "TTL_STAFF": null, "BEDS": 9999999, "TRAUMA": null }, "geometry": { "type": "Point", "coordinates": [ -74.794756521969205, 39.653329066399202 ] } },
{ "type": "Feature", "properties": { "OBJECTID": 242, "NAME": "Inspira-Bridgeton SED", "ADDRESS": "333 IRVING AVENUE", "CITY": "BRIDGETON", "STATE": "NJ", "ZIP": "08302", "TELEPHONE": "856-575-4500", "ALT_PHONE": null, "TYPE": "SATELLITE EMERGENCY DEPARTMENTS", "COUNTY": "CUMBERLAND", "COUNTYFIPS": "34011", "ST_FIPS": "34", "COUNTRY": "US", "REGION": "SOUTH", "LATITUDE": 39.43674031, "LONGITUDE": -75.21998891, "STATE_ID": null, "NAICS_CODE": null, "OWNER": null, "TTL_STAFF": null, "BEDS": 9999999, "TRAUMA": null }, "geometry": { "type": "Point", "coordinates": [ -75.219986187210225, 39.436735507516097 ] } },
{ "type": "Feature", "properties": { "OBJECTID": 243, "NAME": "Lourdes-Deborah SED", "ADDRESS": "200 TRENTON ROAD", "CITY": "BROWNS MILLS", "STATE": "NJ", "ZIP": "08015", "TELEPHONE": null, "ALT_PHONE": null, "TYPE": "SATELLITE EMERGENCY DEPARTMENTS", "COUNTY": "BURLINGTON", "COUNTYFIPS": "34005", "ST_FIPS": "34", "COUNTRY": "US", "REGION": "SOUTH", "LATITUDE": 39.97735153, "LONGITUDE": -74.58548358, "STATE_ID": null, "NAICS_CODE": null, "OWNER": null, "TTL_STAFF": null, "BEDS": 9999999, "TRAUMA": null }, "geometry": { "type": "Point", "coordinates": [ -74.585482714610393, 39.977344676514299 ] } },
{ "type": "Feature", "properties": { "OBJECTID": 244, "NAME": "Jersey City Medical Satellite Emergency Department", "ADDRESS": "519 BROADWAY", "CITY": "BAYONNE", "STATE": "NJ", "ZIP": "07002", "TELEPHONE": null, "ALT_PHONE": null, "TYPE": "SATELLITE EMERGENCY DEPARTMENTS", "COUNTY": "HUDSON", "COUNTYFIPS": "34017", "ST_FIPS": "34", "COUNTRY": "US", "REGION": null, "LATITUDE": 40.66475501, "LONGITUDE": -74.11773784, "STATE_ID": null, "NAICS_CODE": null, "OWNER": null, "TTL_STAFF": null, "BEDS": 9999999, "TRAUMA": null }, "geometry": { "type": "Point", "coordinates": [ -74.117736301728527, 40.664746602838193 ] } }
]
}
